,adres,lat,lng,pokoje,metraz,cena
0,"Wrocław, Psie Pole, rycerska",51.1441979,17.1080431,3,75.31,820000
1,"Wrocław, Fabryczna, Stabłowice",51.15955049999999,16.9003899,3,66.39,699000
2,"Wrocław, Śródmieście, Ołbin",51.1220467,17.0544595,3,50.8,590000
3,"Wrocław, Psie Pole, Osobowice, Witkowska, 7",51.147322,16.985611,3,72.01,799000
4,"Wrocław, Fabryczna, Kozanów, Pałucka, Kozanowska",51.1386906,16.9775449,3,63.7,469000
5,"Wrocław, Fabryczna, ul. Murarska",51.1370237,16.9566614,3,54.0,399000
6,"Wrocław, Psie Pole, Swojczyce",51.1153559,17.1360744,3,63.2,707500
7,"Wrocław, Psie Pole, Karłowice",51.1389665,17.0492602,4,64.9,773500
8,"Wrocław, Krzyki, Brochów",51.0653184,17.074157,3,64.92,538836
9,"Wrocław, Psie Pole, Zakrzów",51.166611,17.1339871,3,66.62,569000
10,"Wrocław, Śródmieście, Centrum",51.1132425,17.0812736,1,28.0,375900
11,"Wrocław, Śródmieście, Sępolno",51.11062159999999,17.0947398,4,74.12,758500
12,"Wrocław, Stare Miasto, Szczepin",51.1176215,17.0121574,2,36.0,466000
13,"Wrocław, Krzyki, Jagodno",51.0516668,17.0576881,3,55.0,505240
14,"Wrocław, Fabryczna, Kuźniki, Hermanowska",51.1234712,16.9515834,2,53.28,478987
15,"Wrocław, Krzyki, Jagodno, Kopycińskiego",51.0582622,17.0524872,2,26.09,287532
16,"Wrocław, Psie Pole, Swojczyce",51.1153559,17.1360744,3,63.02,729999
17,"Wrocław, Psie Pole, Poświętne, Kamieńskiego",51.1536974,17.0437622,3,68.35,599999
18,"Wrocław, Psie Pole, Poświętne, Kamieńskiego",51.1536974,17.0437622,2,32.99,395880
19,"Wrocław, Psie Pole, Swojczyce, Osiedle MUROWANA",51.1184934,17.1276784,3,52.83,610000
20,"Wrocław, Psie Pole, Zgorzelisko",51.13788,17.1299946,4,67.75,499000
21,"Wrocław, Psie Pole, Zgorzelisko",51.13788,17.1299946,4,74.27,489000
22,"Wrocław, Krzyki, Borek, ul. Bolesława Ulanowskiego",51.0827588,17.0071892,4,93.33,819000
23,"Wrocław, Psie Pole, ul. Mulicka",51.146111,17.1175964,4,85.85,498000
24,"Wrocław, Psie Pole, Kleczków, ul. Lucjana Siemieńskiego",51.1284777,17.034284,4,62.07,547420
25,"Wrocław, Fabryczna, Leśnica",51.1521845,16.852105,4,67.0,574900
26,"Wrocław, Śródmieście, Ołbin, ul. Nowowiejska",51.120206,17.0558115,4,64.26,720200
27,"Wrocław, Stare Miasto, Dworcowa",51.1013225,17.0396029,4,69.43,667200
28,"Wrocław, Stare Miasto, ul. Uniwersytecka",51.1130817,17.0345713,5,101.27,1050000
29,"Wrocław, Śródmieście, Biskupin",51.1006338,17.0998089,4,108.59,2171000
30,"Wrocław, Krzyki, Huby, ul. Gliniana",51.0931196,17.0375372,3,67.82,460000
31,"Wrocław, Psie Pole, Karłowice, ul. Maurycego Mochnackiego",51.1416749,17.0385651,4,73.1,669000
32,"Wrocław, Krzyki, Klecina, ul. Kościelna",51.0641357,16.9814847,3,36.51,399900
33,"Wrocław, Fabryczna, Kuźniki",51.1244922,16.9486646,3,33.17,404700
34,"Wrocław, Fabryczna, Nowy Dwór, ul. Nowodworska",51.115165,16.9592761,2,50.0,475000
35,"Wrocław, Śródmieście, Ołbin",51.1220467,17.0544595,4,70.35,678800
36,"Wrocław, Fabryczna, Pilczyce, ul. Murarska",51.1370237,16.9566614,4,66.9,673100
37,"Wrocław, Fabryczna, Grabiszyn, ul. Szczęśliwa",51.0976852,17.0121303,3,49.76,500500
38,"Wrocław, Stare Miasto, Szczepin, ul. Portowa",51.1231587,17.0152463,5,103.42,1345877
39,"Wrocław, Stare Miasto, Szczepin, ul. Portowa",51.1231587,17.0152463,4,77.3,870351
40,"Wrocław, Stare Miasto, Szczepin, ul. Portowa",51.1231587,17.0152463,3,52.26,721070
41,"Wrocław, Stare Miasto, Szczepin, ul. Portowa",51.1231587,17.0152463,2,40.61,479000
42,"Wrocław, Psie Pole, ul. Odolanowska",51.1634115,17.1423649,4,66.11,554000
43,"Wrocław, Psie Pole, ul. Odolanowska",51.1634115,17.1423649,3,51.69,479000
44,"Wrocław, Stare Miasto, Szczepin, ul. Portowa",51.1231587,17.0152463,1,38.14,521049
45,"Wrocław, Psie Pole, ul. Odolanowska",51.1634115,17.1423649,2,35.98,384000
46,"Wrocław, Psie Pole, ul. Ferdynanda Magellana",51.1109166,17.1212255,3,63.27,666500
47,"Wrocław, Fabryczna, Marszowice, Jodłowicka",51.1696053,16.8976106,2,49.0,509000
48,"Wrocław, Fabryczna, Muchobór Wielki, ul. Tarnopolska 14",51.0932483,16.9409909,5,113.7,1030000
49,"Wrocław, Krzyki, Ołtaszyn, ul. Ułańska",51.0529087,17.0152981,5,90.23,780489
50,"Wrocław, Krzyki, ul. Pocztowa",51.0868369,17.0153339,1,29.0,353000
51,"Wrocław, Psie Pole, ul. Ferdynanda Magellana",51.1109166,17.1212255,5,78.0,912600
52,"Wrocław, Psie Pole, ul. Zielna",51.144007,17.1144938,3,53.0,467460
53,"Wrocław, Psie Pole, ul. Ferdynanda Magellana",51.1109166,17.1212255,4,66.02,671754
54,"Wrocław, Psie Pole, ul. Zielna",51.144007,17.1144938,3,62.21,519453
55,"Wrocław, Stare Miasto, Kołłątaja",51.1019699,17.0365226,2,60.36,904796
56,"Wrocław, Psie Pole, Lipa Piotrowska",51.1756961,16.9932025,3,67.41,649000
57,"Wrocław, Krzyki, ul. Klasztorna 27",51.061485,17.042986,3,63.72,589000
58,"Wrocław, Śródmieście, ul. Karola Olszewskiego",51.1024371,17.102312,3,47.0,550000
59,"Wrocław, Psie Pole, ul. Ferdynanda Magellana",51.1109166,17.1212255,2,47.98,540974
60,"Wrocław, Psie Pole, ul. Chorwacka",51.1383945,17.025266,3,59.29,569127
61,"Wrocław, Stare Miasto, Szczepin",51.1176215,17.0121574,2,55.01,449000
62,"Wrocław, Krzyki, Partynice",51.060308,16.9999768,2,51.0,554000
63,"Wrocław, Fabryczna, Nowy Dwór, Rogowska",51.1136776,16.9489519,2,39.1,499500
64,"Wrocław, Psie Pole, Lipa Piotrowska, Kaparowa",51.1781365,17.0038223,2,51.01,496000
65,"Wrocław, Fabryczna, Muchobór Wielki, ul. Jurija Gagarina",51.0952841,16.9346848,3,59.41,543725
66,"Wrocław, Stare Miasto, Szczepin, ul. Portowa",51.1231587,17.0152463,1,46.34,589382
67,"Wrocław, Stare Miasto, Szczepin, ul. Portowa",51.1231587,17.0152463,4,77.26,877184
68,"Wrocław, Stare Miasto, Kołłątaja",51.1019699,17.0365226,1,46.17,761343
69,"Wrocław, Psie Pole, ul. Ferdynanda Magellana",51.1109166,17.1212255,2,50.38,526500
70,"Wrocław, Krzyki, Ołtaszyn, ul. Ułańska",51.0529087,17.0152981,3,65.32,636216
71,"Wrocław, Stare Miasto, Szczepin, ul. Portowa",51.1231587,17.0152463,2,46.29,524000
72,"Wrocław, Psie Pole, ul. Chorwacka",51.1383945,17.025266,3,47.54,522930
73,"Wrocław, Psie Pole, ul. Chorwacka",51.1383945,17.025266,2,40.85,494253
74,"Wrocław, Psie Pole, Poświętne, ul. Ludwika Kubali",51.1565802,17.037495,4,63.25,533071
75,"Wrocław, Psie Pole, ul. Ferdynanda Magellana",51.1109166,17.1212255,3,56.56,629230
76,"Wrocław, Stare Miasto, Szczepin, ul. Jaworska",51.1152502,16.9935578,1,28.15,329898
77,"Wrocław, Psie Pole, ul. Chorwacka",51.1383945,17.025266,4,64.56,651996
78,"Wrocław, Stare Miasto, Szczepin, ul. Portowa",51.1231587,17.0152463,3,62.88,798365
79,"Wrocław, Fabryczna, Maślice",51.157561,16.9274743,2,53.0,550000
80,"Wrocław, Krzyki, ul. Wolbromska",51.0870349,17.0074583,2,47.79,460000
81,"Wrocław, Krzyki, Południe, Aleksandra Hercena",51.1023035,17.0412337,2,45.0,459000
82,"Wrocław, Psie Pole, ul. Ferdynanda Magellana",51.1109166,17.1212255,5,73.5,815850
83,"Wrocław, Psie Pole, Poświętne, ul. Ludwika Kubali",51.1565802,17.037495,4,63.38,531061
84,"Wrocław, Stare Miasto, Szczepin, ul. Jaworska",51.1152502,16.9935578,1,26.55,354492
85,"Wrocław, Stare Miasto, Szczepin, ul. Portowa",51.1231587,17.0152463,5,139.3,1788999
86,"Wrocław, Psie Pole, Poświętne, ul. Ludwika Kubali",51.1565802,17.037495,2,45.06,401034
87,"Wrocław, Psie Pole, ul. Ludwika Kubali",51.1565802,17.037495,3,50.22,449469
88,"Wrocław, Psie Pole, ul. Chorwacka",51.1383945,17.025266,2,55.59,533610
89,"Wrocław, Psie Pole, ul. Chorwacka",51.1383945,17.025266,4,73.34,696706
90,"Wrocław, Krzyki, Klecina, Jeździecka",51.0622632,16.9943417,3,52.45,420000
91,"Wrocław, Krzyki, Jagodno",51.0516668,17.0576881,3,53.6,480200
92,"Wrocław, Fabryczna, Muchobór Wielki, ul. Jurija Gagarina",51.0952841,16.9346848,3,54.86,558116
93,"Wrocław, Stare Miasto, Kołłątaja",51.1019699,17.0365226,2,60.82,911692
94,"Wrocław, Krzyki, Huby",51.0785518,17.0531945,2,42.0,429000
95,"Wrocław, Psie Pole, Poświętne, ul. Ludwika Kubali",51.1565802,17.037495,3,56.46,496848
96,"Wrocław, Fabryczna, Muchobór Wielki, ul. Jurija Gagarina",51.0952841,16.9346848,4,72.23,634445
97,"Wrocław, Psie Pole, Polanowice",51.1625757,17.0431878,4,68.13,598862
98,"Wrocław, Psie Pole, Swojczyce, Vesppuciego",51.1075283,17.1240196,4,88.5,1371750
99,"Wrocław, Psie Pole, Swojczyce",51.1153559,17.1360744,2,49.47,489258
100,"Wrocław, Fabryczna, Gądów Mały",51.124094,16.9688052,3,66.0,539000
101,"Wrocław, Fabryczna, Grabiszyn",51.0911158,16.9916243,5,138.22,1535762
102,"Wrocław, Stare Miasto, ul. gen. Kazimierza Pułaskiego",51.1002922,17.0456324,2,49.98,499000
103,"Wrocław, Fabryczna, Żerniki, Żernicka",51.127359,16.9136398,1,39.95,405000
104,"Wrocław, Fabryczna, Oporów, Jordanowska",51.083845,16.9647945,3,72.0,799000
105,"Wrocław, Fabryczna, Grabiszyn, Brązowa",51.101532,17.0006162,2,49.0,496000
106,"Wrocław, Krzyki, Borek, ul. Tapicerska",51.0799662,17.0122767,1,40.0,499000
107,"Wrocław, Fabryczna, Pracze Odrzańskie",51.1862311,16.9076151,4,77.6,1085000
108,"Wrocław, Krzyki, Jagodno",51.0516668,17.0576881,3,61.73,535700
109,"Wrocław, Krzyki, Jagodno",51.0516668,17.0576881,3,72.0,850000
110,"Wrocław, Rynek, rynek Ratusz",51.1108611,17.0315217,2,50.63,990000
111,"Wrocław, Psie Pole, ul. Zielna",51.144007,17.1144938,4,61.71,515278
112,"Wrocław, Psie Pole, Poświętne, ul. Ludwika Kubali",51.1565802,17.037495,2,42.36,381240
113,"Wrocław, Fabryczna, Popowice, ul. Popowicka",51.1276477,16.9897248,3,54.0,520000
114,"Wrocław, Krzyki, ul. Poranna",51.0736912,16.9934055,3,70.0,810000
115,"Wrocław, Krzyki, Gaj, Pirenejska, Himalajska",51.0724142,17.0370701,2,52.2,580000
116,"Wrocław, Krzyki, Południe, ul. Oficerska",51.0920493,17.0104232,3,52.93,550000
117,"Wrocław, Psie Pole, ul. Ferdynanda Magellana",51.1109166,17.1212255,4,65.9,690303
118,"Wrocław, Fabryczna, Gądów Mały, ul. Franciszka Hynka",51.1238813,16.9641654,1,34.3,415000
119,"Wrocław, Krzyki, Borek, ul. Słowicza",51.0886868,17.0087971,3,72.49,869000
120,"Wrocław, Śródmieście, Ołbin, ul. Stefana Żeromskiego",51.1234232,17.0488232,2,58.98,737250
121,"Wrocław, Stare Miasto, Szczepin, Bolesławiecka",51.1148332,17.0007139,2,59.44,549000
122,"Wrocław, Krzyki, Południe, ul. Tadeusza Kościuszki",51.1008268,17.0418116,2,57.11,550000
123,"Wrocław, Psie Pole, Zakrzów",51.166611,17.1339871,3,58.0,676000
124,"Wrocław, Śródmieście, Plac Grunwaldzki",51.1123373,17.0627448,3,47.7,630000
125,"Wrocław, Psie Pole, Poświętne, Ramiszowska",51.1545422,17.0368701,2,43.46,499000
126,"Wrocław, Psie Pole, Poświętne, Ramiszowska",51.1545422,17.0368701,2,45.9,504000
127,"Wrocław, Fabryczna, Muchobór Wielki, Marka Hłaski",51.1009326,16.9490158,3,75.6,590000
128,"Wrocław, Krzyki, Wojszyce, Asfaltowa",51.0629849,17.0467592,2,85.71,699000
129,"Wrocław, Psie Pole, Poświętne, Czartoryskiego Adama Jerzego",51.1540665,17.0471914,2,49.54,585000
130,"Wrocław, Śródmieście, Sępolno, ul. Edwarda Dembowskiego",51.1063701,17.0969998,2,48.0,609000
131,"Wrocław, Krzyki, Tarnogaj",51.0833068,17.0617559,1,30.0,375000
132,"Wrocław, Krzyki, Jagodno",51.0516668,17.0576881,3,48.84,449500
133,"Wrocław, Krzyki, Ołtaszyn, ul. Parafialna",51.0607184,17.0265046,2,42.0,449000
134,"Wrocław, Fabryczna, Pilczyce, ul. Pilczycka",51.1389985,16.9613991,3,62.1,550000
135,"Wrocław, Fabryczna, Muchobór Wielki, Graniczna",51.1095608,16.93351,1,28.0,400000
136,"Wrocław, Krzyki, Jagodno, Buforowa",51.0517863,17.0582868,3,51.78,589000
137,"Wrocław, Fabryczna, Gądów Mały, ul. Balonowa",51.1220574,16.9649683,1,27.8,430680
138,"Wrocław, Fabryczna, Muchobór Wielki, ul. Jurija Gagarina",51.0952841,16.9346848,4,80.42,756563
139,"Wrocław, Krzyki, Południe, gen. Romualda Traugutta",51.1029133,17.0508547,3,77.46,695000
140,"Wrocław, Krzyki, ok.Wroclavi/Hubska",51.0906746,17.0444192,3,78.0,875000
141,"Wrocław, Stare Miasto, ul. marsz. Józefa Piłsudskiego",51.105988,17.0208688,2,52.0,590000
142,"Wrocław, Fabryczna, Muchobór Wielki, ul. Graniczna",51.1095608,16.93351,2,44.2,499999
143,"Wrocław, Krzyki, Brochów, ul. Boiskowa",51.0479879,17.0877407,3,50.0,433000
144,"Wrocław, Psie Pole, ul. Grodzieńska",51.1389809,17.1349991,3,52.61,447185
145,"Wrocław, Fabryczna, ul. Jodłowicka",51.1696053,16.8976106,2,37.0,430000
146,"Wrocław, Psie Pole, ul. Grodzieńska",51.1389809,17.1349991,2,42.88,381632
147,"Wrocław, Śródmieście, Sępolno",51.11062159999999,17.0947398,3,79.0,620000
148,"Wrocław, Krzyki, Księże Małe, ul. Zabrzańska",51.0789003,17.0857064,3,62.6,564000
149,"Wrocław, Krzyki, Borek, Gajowicka",51.0857274,17.0045021,3,95.0,749000
150,"Wrocław, Psie Pole, Różanka",51.1432965,17.0203339,3,54.2,525000
151,"Wrocław, Psie Pole, ul. Grodzieńska",51.1389809,17.1349991,4,76.32,587664
152,"Wrocław, Krzyki, Wichrowa",51.0759383,16.9894669,3,54.0,584000
153,"Wrocław, Fabryczna, Nowy Dwór",51.1153476,16.9583346,1,22.0,313000
154,"Wrocław, Fabryczna, Oporów, ul. Honoriusza Balzaka",51.0762432,16.9592207,2,47.5,540000
155,"Wrocław, Psie Pole, Karłowice",51.1389665,17.0492602,5,79.0,800000
156,"Wrocław, Śródmieście, Centrum, ul. Tadeusza Kościuszki",51.1008268,17.0418116,3,81.0,749000
157,"Wrocław, Psie Pole, Poświętne, Adama Jerzego Czartoryskiego",51.1544364,17.0453384,3,55.02,495180
158,"Wrocław, Psie Pole, Zakrzów, Odolanowska",51.1634115,17.1423649,4,64.73,602789
159,"Wrocław, Fabryczna, Oporów, Ibn Siny Awicenny",51.0847185,16.9543212,2,41.4,428490
160,"Wrocław, Psie Pole, ul. Grodzieńska",51.1389809,17.1349991,4,74.45,558375
161,"Wrocław, Śródmieście, Plac Grunwaldzki, ul. Grunwaldzka",51.11463089999999,17.0708344,2,56.0,599000
162,"Wrocław, Stare Miasto, ul. Ludwika Rydygiera 7-9",51.1181054,17.0341024,2,61.35,679000
163,"Wrocław, Fabryczna, Grabiszyn, ul. Lubuska",51.1004997,17.0113425,4,53.5,500000
164,"Wrocław, Psie Pole, Swojczyce",51.1153559,17.1360744,2,51.0,750000
165,"Wrocław, Psie Pole, Swojczyce, ul. Jamesa Cooka",51.1115674,17.1227843,4,67.91,1388000
166,"Wrocław, Stare Miasto, ul. Komuny Paryskiej",51.101719,17.046855,1,28.28,452480
167,"Wrocław, Śródmieście, Ołbin, ul. Stefana Żeromskiego",51.1234232,17.0488232,2,42.04,590662
168,"Wrocław, Fabryczna, Muchobór Mały",51.1082587,16.9668133,3,68.0,558999
169,"Wrocław, Fabryczna, ul. Na Ostatnim Groszu",51.1236642,16.9762521,3,53.4,524900
170,"Wrocław, Krzyki, Ołtaszyn, ul. Brylantowa",51.0493629,17.0279671,1,27.51,340849
171,"Wrocław, Psie Pole, Zatorska",51.1603498,17.1338343,4,69.15,656925
172,"Wrocław, Krzyki, Południe, Tadeusza Kościuszki",51.1008268,17.0418116,3,56.0,739000
173,"Wrocław, Stare Miasto, ul. Mieszczańska",51.1185898,17.0227808,1,19.59,313440
174,"Wrocław, Fabryczna, Stabłowice, ul. Stabłowicka",51.1642808,16.8971,4,70.0,535836
175,"Wrocław, Krzyki, ul. Zwycięska",51.0596713,17.0056292,1,38.56,462720
176,"Wrocław, Fabryczna, Gądów Mały, ul. Balonowa",51.1220574,16.9649683,2,43.74,536772
177,"Wrocław, Krzyki, Ołtaszyn, Ołtaszyn ulica Rzepakowa",51.0591697,17.0194007,6,180.0,1500000
178,"Wrocław, Fabryczna, ul. Legnicka",51.1198031,16.9969977,4,98.46,1150000
179,"Wrocław, Psie Pole, ul. Grodzieńska",51.1389809,17.1349991,2,39.48,371112
180,"Wrocław, Śródmieście, Sępolno",51.11062159999999,17.0947398,3,56.0,593000
181,"Wrocław, Krzyki, Klecina, Kościelna",51.0641357,16.9814847,3,36.5,399000
182,"Wrocław, Psie Pole, Zatorska",51.1603498,17.1338343,1,25.95,290640
183,"Wrocław, Fabryczna, Gądów Mały, ul. Balonowa",51.1220574,16.9649683,2,49.5,490000
184,"Wrocław, Psie Pole, Jamesa Cooka",51.1115674,17.1227843,4,67.91,1388000
185,"Wrocław, Fabryczna, Grabiszyn, Mosiężna",51.1011282,16.9990805,3,59.0,620000
186,"Wrocław, Krzyki, Borek, Aleja Generała Józefa Hallera",51.0876369,17.0071343,3,50.4,499900
187,"Wrocław, Fabryczna, ul. Fabryczna",51.1122687,16.9864699,1,17.0,239000
188,"Wrocław, Fabryczna, Maślice, ul. Michała Wołodyjowskiego",51.1557845,16.9272767,2,37.76,395000
189,"Wrocław, Psie Pole, ul. Waniliowa",51.1774147,16.9989875,2,40.0,475000
190,"Wrocław, Śródmieście, Ołbin, ul. Stefana Żeromskiego",51.1234232,17.0488232,3,55.22,756514
191,"Wrocław, Fabryczna, Oporów",51.07731769999999,16.9633676,3,64.0,725000
192,"Wrocław, Fabryczna, ul. Bzowa",51.0954993,16.9929027,1,27.0,345000
193,"Wrocław, Rynek, Łaciarska/Oławska",51.1103736,17.0310308,1,22.68,339000
194,"Wrocław, Psie Pole, ul. Grodzieńska",51.1389809,17.1349991,3,55.34,470390
195,"Wrocław, Stare Miasto, ul. Kolejowa 30",51.102388,17.018845,2,37.5,420000
196,"Wrocław, Krzyki, Boczna",51.0927594,17.0458378,4,83.6,670000
197,"Wrocław, Śródmieście, Romana Dmowskiego",51.1169476,17.0215822,4,78.64,1100000
198,"Wrocław, Fabryczna, Muchobór Wielki, Marka Hłaski",51.1009326,16.9490158,3,69.0,768000
199,"Wrocław, Śródmieście, Zyndrama z Maszkowic",51.11585,17.0266934,3,62.5,999000
200,"Wrocław, Śródmieście, Biskupin",51.1006338,17.0998089,1,27.0,330000
201,"Wrocław, Śródmieście, Księcia Witolda",51.115085,17.0266004,3,61.96,995000
202,"Wrocław, Śródmieście, Księcia Witolda",51.115085,17.0266004,2,50.61,890000
203,"Wrocław, Krzyki, Partynice, ul. Partynicka",51.0640312,16.9931832,1,23.45,279781
204,"Wrocław, Krzyki, Południe, Tadeusza Kościuszki",51.1008268,17.0418116,3,110.0,649000
205,"Wrocław, Psie Pole, ul. Kleczkowska",51.1271107,17.0246632,2,58.0,550000
206,"Wrocław, Fabryczna, Grabiszyn, Odkrywców",51.0862184,16.9839001,3,72.8,990000
207,"Wrocław, Śródmieście, Jana Stanisławskiego",51.0995583,17.1063881,3,52.0,525000
208,"Wrocław, Psie Pole, ul. Bierutowska",51.1540364,17.1367024,3,75.0,749999
209,"Wrocław, Fabryczna, Popowice, Jelenia",51.1247071,16.9969643,3,54.1,540000
210,"Wrocław, Stare Miasto, Szczepin",51.1176215,17.0121574,2,50.0,499000
211,"Wrocław, Krzyki, Południe",51.0914689,17.0431757,2,50.0,499000
212,"Wrocław, Fabryczna, Popowice, ul. Białowieska",51.1273108,16.9934396,3,55.0,750000
213,"Wrocław, Śródmieście, ul. kard. Stefana Wyszyńskiego",51.1205831,17.0517033,2,47.0,549000
214,"Wrocław, Krzyki, Jagodno",51.0516668,17.0576881,3,53.72,476372
215,"Wrocław, Krzyki, Gaj, ul. Jerzego Kukuczki",51.0718286,17.0358325,3,66.0,920000
216,"Wrocław, Krzyki, Księże Małe, ul. Czechowicka",51.0817404,17.0841444,2,40.49,548999
217,"Wrocław, Psie Pole, Zgorzelisko",51.13788,17.1299946,2,47.99,379000
218,"Wrocław, Fabryczna, Muchobór Wielki",51.0975756,16.9483105,3,59.34,605000
219,"Wrocław, Psie Pole, ul. Odolanowska",51.1634115,17.1423649,3,57.57,519000
220,"Wrocław, Śródmieście, Ołbin, ul. Stefana Żeromskiego",51.1234232,17.0488232,3,64.72,796056
221,"Wrocław, Psie Pole, ul. Zielna",51.144007,17.1144938,3,71.48,769000
222,"Wrocław, Śródmieście, ul. Głogowska",51.1174661,17.0031251,3,54.89,512000
223,"Wrocław, Fabryczna, ul. Kokosowa",51.1562125,16.9015223,3,67.1,630000
224,"Wrocław, Krzyki, ul. Rudolfa Weigla",51.0757052,17.022365,2,46.0,507000
225,"Wrocław, Krzyki, Ołtaszyn, ul. Brylantowa",51.0493629,17.0279671,3,57.24,570969
226,"Wrocław, Śródmieście, Plac Grunwaldzki, Grunwaldzka",51.1141892,17.0633775,3,55.0,485000
227,"Wrocław, Śródmieście, Plac Grunwaldzki, Plac Grunwaldzki",51.1123373,17.0627448,2,44.0,499000
228,"Wrocław, Fabryczna, Leśnica, Promenada",51.1408998,16.8740292,2,38.44,339000
229,"Wrocław, Stare Miasto, Szczepin, ul. Jaworska",51.1152502,16.9935578,1,26.0,359400
230,"Wrocław, Fabryczna, Kuźniki, Hermanowska",51.1234712,16.9515834,3,57.75,599000
231,"Wrocław, Fabryczna, Muchobór Wielki, Tarnopolska",51.0939029,16.940905,4,80.5,850000
232,"Wrocław, Krzyki, Jagodno, Buforowa",51.0517863,17.0582868,2,31.66,449574
233,"Wrocław, Krzyki, Ołtaszyn, ul. Brylantowa",51.0493629,17.0279671,2,43.11,443602
234,"Wrocław, Stare Miasto, Tadeusza Kościuszki",51.1013225,17.0396029,1,23.3,370000
235,"Wrocław, Psie Pole, Swojczyce",51.1153559,17.1360744,2,41.0,614000
236,"Wrocław, Fabryczna, Pilczyce, ul. Murarska",51.1370237,16.9566614,2,47.1,445000
237,"Wrocław, Fabryczna, ul. Żwirki i Wigury",51.0975043,16.9349861,2,38.95,399000
238,"Wrocław, Śródmieście, ul. Zakładowa",51.1298789,17.0414753,1,30.0,395000
239,"Wrocław, Krzyki, Tarnogaj",51.0833068,17.0617559,3,55.0,639000
240,"Wrocław, Krzyki, Huby, Ciepła",51.0924576,17.0359064,3,66.71,699000
241,"Wrocław, Krzyki, Klecina, ul. Dożynkowa",51.0700227,16.9833368,3,60.35,749000
242,"Wrocław, Krzyki, Borek, Gajowicka/Racławicka",51.0815503,17.0004189,2,35.0,370000
243,"Wrocław, Stare Miasto, Czarneckiego/Lubińska",51.1160869,17.0049495,2,39.1,415000
244,"Wrocław, Fabryczna, Grabiszyn, Spiżowa",51.1014705,17.0014367,2,49.0,498000
245,"Wrocław, Krzyki, Gaj, Radkowska/Kłodzka",51.0737178,17.046715,2,51.0,545000
246,"Wrocław, Fabryczna, Gądów Mały",51.124094,16.9688052,2,51.3,449000
247,"Wrocław, Fabryczna, Maślice",51.157561,16.9274743,2,45.0,549000
248,"Wrocław, Krzyki, ul. Ślężna ",51.0838457,17.0247434,1,38.0,489000
249,"Wrocław, Stare Miasto, ul. Szczepińska 18",51.1138343,17.0161243,3,56.0,589000
250,"Wrocław, Stare Miasto, ul. Litomska",51.1167319,17.0098192,2,49.06,690000
251,"Wrocław, Krzyki, Gaj, ul. Krynicka",51.080103,17.0481479,2,52.0,459000
252,"Wrocław, Psie Pole, Wojnów, ul. Gitarowa",51.1056056,17.1608239,2,30.01,314900
253,"Wrocław, Psie Pole, Różanka, ul. Obornicka",51.1463535,17.0219425,3,52.0,532000
254,"Wrocław, Fabryczna, Stabłowice, Łomnicka",51.1616341,16.9081575,3,67.23,589000
255,"Wrocław, Psie Pole, Swojczyce, Marca Polo",51.1109378,17.1169706,2,42.84,590000
256,"Wrocław, Krzyki, Krasińskiego",51.1061993,17.0434105,3,85.65,722000
257,"Wrocław, Stare Miasto, ul. Długa",51.1210389,17.0132445,2,53.34,699000
258,"Wrocław, Fabryczna, Jerzego Bajana",51.1274828,16.9628297,1,34.3,415000
259,"Wrocław, Psie Pole, Karłowice, ul. Piotra Czajkowskiego",51.1409422,17.0603278,4,72.88,645000
260,"Wrocław, Fabryczna, Oporów, ul. Jordanowska 55",51.083845,16.9647945,2,48.0,598000
261,"Wrocław, Krzyki, Południe, Swobodna",51.0992912,17.0270284,3,54.1,455959
262,"Wrocław, Stare Miasto, Szczepin, Długa",51.1213043,17.0127913,3,56.11,723819
263,"Wrocław, Krzyki, Huby",51.0785518,17.0531945,3,76.0,514000
264,"Wrocław, Krzyki, Księże Małe, Rybnicka",51.0807625,17.0854151,4,86.73,879000
265,"Wrocław, Śródmieście, Ołbin, Przeskok",51.119548,17.0465168,5,96.56,779000
266,"Wrocław, Psie Pole, Poświętne",51.156974,17.0368205,3,51.47,548000
267,"Wrocław, Krzyki, ul. gen. Józefa Haukego-Bosaka",51.1043163,17.0470557,3,88.0,750000
268,"Wrocław, Krzyki, Radosna",51.0937818,17.0244035,3,106.0,1378000
269,"Wrocław, Stare Miasto, ul. Podwale",51.1053122,17.0279721,2,63.2,699000
270,"Wrocław, Krzyki, Południe, Tadeusza Kościuszki",51.1008268,17.0418116,2,57.11,549999
271,"Wrocław, Krzyki, Brochów",51.0653184,17.074157,1,33.68,319773
272,"Wrocław, Krzyki, Gaj, Kłodzka ",51.0730328,17.0457849,2,51.0,545000
273,"Wrocław, Krzyki, Borek, Słowicza",51.0886868,17.0087971,2,51.96,430000
274,"Wrocław, Stare Miasto, ul. Komuny Paryskiej",51.101719,17.046855,2,43.0,599900
275,"Wrocław, Krzyki, Ołtaszyn, ul. Brylantowa",51.0493629,17.0279671,1,27.71,320051
276,"Wrocław, Psie Pole, ul. Odolanowska",51.1634115,17.1423649,2,37.06,389000
277,"Wrocław, Stare Miasto, ul. Stanisława Więckowskiego",51.0983457,17.0528855,2,38.0,439000
278,"Wrocław, Stare Miasto, Strzegomska",51.1130857,17.0011973,1,26.0,359400
279,"Wrocław, Fabryczna, ul. Sarbinowska",51.1276119,16.9463615,2,53.0,469000
280,"Wrocław, Krzyki, Partynice, Partynicka",51.0640312,16.9931832,2,48.05,509000
281,"Wrocław, Krzyki, Ołtaszyn, Ametystowa",51.0507982,17.0203362,2,53.5,559000
282,"Wrocław, Krzyki, Kamienna",51.0886203,17.0330666,2,37.4,459000
283,"Wrocław, Psie Pole, Litewska",51.1425862,17.1318243,3,62.22,569000
284,"Wrocław, Fabryczna, Kuźniki, Pucka",51.1237417,16.9428267,3,63.61,670000
285,"Wrocław, Śródmieście, Sępolno, Partyzantów",51.1098695,17.1014666,3,70.0,729000
286,"Wrocław, Fabryczna, Kuźniki, Majakowskiego Włodzimierza",51.1263015,16.9495729,2,54.3,519000
287,"Wrocław, Krzyki, Powstańców Śląskich",51.0893253,17.0159794,4,85.0,929000
288,"Wrocław, Krzyki, Ołtaszyn, Łubinowa",51.0607682,17.0202338,4,102.0,929000
289,"Wrocław, Fabryczna, Żerniki, Heinricha Lauterbacha",51.1374819,16.9261205,3,64.78,1060000
290,"Wrocław, Fabryczna, Grabiszyn, GRABISZYNEK",51.0911158,16.9916243,3,68.3,949000
291,"Wrocław, Nadodrze, Władysława Łokietka",51.1180836,17.0350871,2,82.0,705000
292,"Wrocław, Fabryczna, Muchobór Wielki, Wańkowicza Melchiora",51.1031265,16.9512467,3,87.2,769000
293,"Wrocław, Krzyki, Drukarska",51.0899916,17.0208572,2,44.26,575380
294,"Wrocław, Fabryczna, Złotniki",51.139186,16.8850292,3,52.05,550000
295,"Wrocław, Fabryczna, Maślice, Królewiecka",51.1498147,16.9294238,2,39.48,399000
296,"Wrocław, Krzyki, ul. Komuny Paryskiej",51.101719,17.046855,2,34.89,519511
297,"Wrocław, Śródmieście, Dąbie",51.1028357,17.083909,4,108.59,2171000
298,"Wrocław, Fabryczna, Stabłowicka",51.1642808,16.8971,2,49.15,509000
299,"Wrocław, Psie Pole, Zakrzów, Odolanowska",51.1634115,17.1423649,2,41.13,424103
300,"Wrocław, Fabryczna, Oporów, ul. Honoriusza Balzaka",51.0762432,16.9592207,3,66.16,755000
301,"Wrocław, Fabryczna, Grabiszyn, ul. Lubuska",51.1004997,17.0113425,4,54.1,468000
302,"Wrocław, Psie Pole, Zakrzów, Odolanowska",51.1634115,17.1423649,2,35.68,380798
303,"Wrocław, Krzyki, Południe",51.0914689,17.0431757,4,95.95,1900059
304,"Wrocław, Krzyki, Tadeusza Zielińskiego",51.0989093,17.0211789,2,40.0,449000
305,"Wrocław, Psie Pole, Kowale",51.12728019999999,17.1091865,2,49.87,497609
306,"Wrocław, Psie Pole, ul. Obornicka",51.1463535,17.0219425,4,74.6,695000
307,"Wrocław, Krzyki, Ołtaszyn",51.0533538,17.0200321,5,100.0,779000
308,"Wrocław, Krzyki, Partynice, ul. Zwycięska",51.06115759999999,16.9979535,4,74.91,595328
309,"Wrocław, Stare Miasto, ul. Mieszczańska",51.1185898,17.0227808,2,43.2,622080
310,"Wrocław, Krzyki, ul. Zawierciańska",51.0801907,17.084722,3,62.28,588753
311,"Wrocław, Krzyki, Partynice, ul. Zwycięska",51.06115759999999,16.9979535,4,76.93,611547
312,"Wrocław, Stare Miasto, ul. Mieszczańska",51.1185898,17.0227808,1,37.11,530673
313,"Wrocław, Śródmieście, ul. Mieszczańska",51.1185898,17.0227808,1,38.7,495500
314,"Wrocław, Krzyki, ul. Zawierciańska",51.0801907,17.084722,4,147.14,1160000
315,"Wrocław, Krzyki, ul. Zawierciańska",51.0801907,17.084722,3,62.43,564652
316,"Wrocław, Krzyki, Partynice, ul. Zwycięska",51.06115759999999,16.9979535,4,99.87,793966
317,"Wrocław, Krzyki, Huby",51.0785518,17.0531945,4,136.43,1190000
318,"Wrocław, Fabryczna, Maślice",51.157561,16.9274743,1,20.5,269999
319,"Wrocław, Fabryczna, Stabłowice, Łomnicka",51.1616341,16.9081575,2,48.0,499999
320,"Wrocław, Fabryczna, Popowice, ul. Białowieska",51.1273108,16.9934396,2,35.3,435000
321,"Wrocław, Fabryczna, Oporów, Racławicka",51.0808338,16.9975774,3,61.44,629760
322,"Wrocław, Psie Pole, Zatorska",51.1603498,17.1338343,3,60.55,526179
323,"Wrocław, Śródmieście, Dąbie ul. Rzeźbiarska",51.0998815,17.0835392,3,85.0,1250000
324,"Wrocław, Fabryczna, ul. Inżynierska",51.0950482,16.9890845,2,53.5,850000
325,"Wrocław, Stare Miasto, Szczepin, Gnieźnieńska",51.1224314,17.0119577,2,44.1,559889
326,"Wrocław, Śródmieście, Plac Grunwaldzki, Piastowska",51.1141562,17.0604472,2,55.3,497700
327,"Wrocław, Fabryczna, Popowice, Jelenia",51.1247071,16.9969643,3,54.0,537300
328,"Wrocław, Fabryczna, ul. Kosmonautów",51.1451889,16.8724234,2,46.0,468000
329,"Wrocław, Krzyki, Ołtaszyn, ul. Brylantowa",51.0493629,17.0279671,2,42.93,432734
330,"Wrocław, Krzyki, Gaj, Strońska ok Piławska Rutkiewicz Krzyki GAJ",51.0749797,17.0431195,1,30.0,345000
331,"Wrocław, Psie Pole, Różanka, Zaułek Rogoziński",51.141375,17.0311323,2,40.38,460000
332,"Wrocław, Fabryczna, Grabiszyn",51.0911158,16.9916243,1,27.0,300000
333,"Wrocław, Stare Miasto, Strzegomska",51.1130857,17.0011973,3,72.0,779000
334,"Wrocław, Krzyki, Południe, Kościuszki",51.1008268,17.0418116,2,43.0,599901
335,"Wrocław, Fabryczna, Nowy Dwór, Rogowska",51.1136776,16.9489519,3,61.0,530000
336,"Wrocław, Psie Pole, Karłowice, Sołtysowicka",51.1454802,17.0728136,2,48.0,612140
337,"Wrocław, Śródmieście, Biskupin, Sempołowskiej Stefanii",51.1036414,17.1051166,3,47.2,508000
338,"Wrocław, Stare Miasto, Piłsudskiego Józefa",51.1030998,17.0250042,4,110.43,2800000
339,"Wrocław, Krzyki, Gaj, Orzechowa",51.0785822,17.043757,3,53.2,490000
340,"Wrocław, Śródmieście, Ołbin, Walecznych",51.1191888,17.060271,3,57.97,849000
341,"Wrocław, Fabryczna, Maślice, Al. Śliwowa",51.155347,16.943674,2,53.0,559000
342,"Wrocław, Nadodrze, Trzebnicka",51.1242414,17.035718,2,32.0,429000
343,"Wrocław, Psie Pole, Sołtysowice, Przejazdowa",51.1478766,17.0801996,2,52.0,482000
344,"Wrocław, Krzyki, Południe, Kościuszki",51.1008268,17.0418116,2,37.31,439000
345,"Wrocław, Śródmieście, Pl. Bema",51.1166839,17.0419566,5,61.41,945000
346,"Wrocław, Fabryczna, Grabiszyn, Hallera Józefa, gen.",51.0927769,16.9812606,2,63.6,760000
347,"Wrocław, Fabryczna, Złotniki, Małopolska",51.1388712,16.8938832,2,35.5,550000
348,"Wrocław, Stare Miasto, Piłsudskiego Józefa",51.1030998,17.0250042,3,78.28,780000
349,"Wrocław, Psie Pole, ul. Henryka Michała Kamieńskiego",51.1568406,17.0443512,2,48.6,485000
350,"Wrocław, Stare Miasto, Szczepin, ul. Łęczycka",51.1197307,17.0123315,3,56.61,499000
351,"Wrocław, Stare Miasto, ul. Szpitalna",51.1036146,17.0125571,3,61.92,452000
352,"Wrocław, Krzyki, Jagodno",51.0516668,17.0576881,2,47.5,485000
353,"Wrocław, Krzyki, ul. Zaporoska",51.0967942,17.0148281,3,55.0,614000
354,"Wrocław, Krzyki, Przedmieście Oławskie",51.1012991,17.049343,3,112.0,850000
355,"Wrocław, Fabryczna, Nowy Dwór, Zemska",51.1170475,16.9506855,3,68.0,569000
356,"Wrocław, Krzyki, Huby",51.0785518,17.0531945,4,88.0,862400
357,"Wrocław, Krzyki, Południe, Komuny Paryskiej",51.101719,17.046855,1,25.56,391068
358,"Wrocław, Śródmieście, ul. Nowowiejska",51.1205498,17.0551953,3,74.0,648000
359,"Wrocław, Krzyki, Gaj, ul. Strońska",51.0742377,17.0415684,1,33.0,450000
360,"Wrocław, Krzyki, Jagodno",51.0516668,17.0576881,2,53.87,536006
361,"Wrocław, Krzyki, Księże Małe, ul. Blizanowicka",51.0774879,17.0916281,2,45.5,439000
362,"Wrocław, Psie Pole, Zakrzów",51.166611,17.1339871,3,50.0,448000
363,"Wrocław, Krzyki, Gwiaździsta",51.0972503,17.0216121,2,56.4,1250000
364,"Wrocław, Fabryczna, Muchobór Wielki, ul. Rakietowa",51.0984249,16.9302955,2,44.85,459000
365,"Wrocław, Krzyki, Klecina, ul. Dożynkowa",51.0700227,16.9833368,4,73.31,990000
366,"Wrocław, Krzyki, Brochów, Birmańska",51.0614909,17.083995,2,62.04,465000
367,"Wrocław, Stare Miasto, ul. Długa",51.1210389,17.0132445,2,41.0,479000
368,"Wrocław, Krzyki, ul. Piękna",51.085004,17.0544712,2,40.5,479000
369,"Wrocław, Śródmieście, Biskupin",51.1006338,17.0998089,3,47.0,550000
370,"Wrocław, Psie Pole, ul. Henryka Michała Kamieńskiego",51.1568406,17.0443512,3,69.37,735000
371,"Wrocław, Fabryczna, Nowy Dwór",51.1153476,16.9583346,3,66.0,498000
372,"Wrocław, Fabryczna, Kozanów",51.1388553,16.9780266,3,59.0,466000
373,"Wrocław, Fabryczna, Muchobór Wielki, ul. Jurija Gagarina",51.0952841,16.9346848,4,108.6,1090000
374,"Wrocław, Psie Pole, Zakrzów",51.166611,17.1339871,3,61.0,508000
375,"Wrocław, Psie Pole, ul. Odolanowska",51.1634115,17.1423649,4,74.39,594000
376,"Wrocław, Fabryczna, Grabiszyn",51.0911158,16.9916243,3,60.8,599000
377,"Wrocław, Krzyki, ul. Komandorska",51.0949817,17.0271255,1,27.0,350000
378,"Wrocław, Krzyki, Oficerska",51.0920493,17.0104232,3,48.0,569000
379,"Wrocław, Krzyki, Księże Małe, Rybnicka",51.0807625,17.0854151,2,58.79,799000
380,"Wrocław, Psie Pole, Lipa Piotrowska, Cynamonowa",51.1759675,16.9987194,3,66.55,634000
381,"Wrocław, Śródmieście, Plac Grunwaldzki, Plac Grunwaldzki",51.1123373,17.0627448,3,54.0,579000
382,"Wrocław, Krzyki, Chorzowska",51.0751228,17.0828686,4,69.0,635000
383,"Wrocław, Krzyki, Jagodno, ul. Ryszarda Wagnera",51.0527387,17.0609399,2,50.0,577000
384,"Wrocław, Fabryczna, Maślice, ul. Maślicka",51.1556322,16.9364771,2,52.0,680000
385,"Wrocław, Stare Miasto, Szewska",51.1105495,17.0348695,2,59.83,780000
386,"Wrocław, Stare Miasto, Dworcowa",51.1013225,17.0396029,4,70.0,667200
387,"Wrocław, Fabryczna, Grabiszyn, Rymarska",51.0805753,16.9911796,3,87.0,939000
388,"Wrocław, Krzyki, Południe, Tadeusza Kościuszki",51.1008268,17.0418116,3,65.57,798000
389,"Wrocław, Fabryczna, Muchobór Wielki, Kunickiego Stanisława",51.0907588,16.9373492,3,79.0,765000
390,"Wrocław, Fabryczna, Muchobór Wielki, Trawowa",51.1000953,16.9517193,3,68.26,585000
391,"Wrocław, Psie Pole, Różanka, Różanka",51.1432965,17.0203339,3,57.5,615000
392,"Wrocław, Psie Pole, Gorlicka",51.1441781,17.1183903,2,51.4,499900
393,"Wrocław, Krzyki, Południe, Komuny Paryskiej",51.101719,17.046855,1,26.0,395000
394,"Wrocław, Stare Miasto, Szczepin, Lubińska",51.1173735,17.005275,2,39.1,415000
395,"Wrocław, Krzyki, ul. Boiskowa",51.0479879,17.0877407,3,58.0,486000
396,"Wrocław, Krzyki, ul. Skarbowców",51.0742237,16.995346,3,59.05,742000
397,"Wrocław, Psie Pole, Swojczyce, Swojczycka",51.1135175,17.1226409,4,87.65,890000
398,"Wrocław, Krzyki, Gaj, Kukuczki",51.0718286,17.0358325,2,50.0,580000
399,"Wrocław, Stare Miasto, Kotlarska",51.1114401,17.0345118,2,46.5,690000
400,"Wrocław, Krzyki, Tarnogaj, Klimasa",51.0802539,17.0614176,2,42.33,559000
401,"Wrocław, Psie Pole, Sołtysowice, Rafała Wojaczka",51.1468562,17.0707603,3,63.2,639000
402,"Wrocław, Fabryczna, Maślice, Al. Śliwowa",51.155347,16.943674,2,47.07,540000
403,"Wrocław, Stare Miasto, Ofiar Oświęcimskich",51.1082396,17.0331047,2,60.0,820000
404,"Wrocław, Fabryczna, Stabłowice, Kokosowa",51.1562125,16.9015223,3,64.32,830000
405,"Wrocław, Fabryczna, Grabiszyn, Grabiszyńska",51.0911158,16.9916243,2,50.0,520000
406,"Wrocław, Śródmieście, Dąbie, Wiwulskiego",51.1010439,17.0827076,2,56.67,899000
407,"Wrocław, Stare Miasto, Odrzańska",51.1121967,17.0313108,3,71.3,794000
408,"Wrocław, Śródmieście, Sępolno, Okrzei Stefana",51.1078547,17.0983535,3,68.78,790000
409,"Wrocław, Fabryczna, Stabłowice, Daktylowa",51.1563544,16.8962274,3,70.91,749000
410,"Wrocław, Śródmieście, Ołbin, Cinciały",51.1259711,17.0523309,2,47.5,440000
411,"Wrocław, Śródmieście, Plac Grunwaldzki, Wybrzeże Pasteura",51.1117816,17.0698392,3,96.9,890000
412,"Wrocław, Psie Pole, Sołtysowice, Redycka",51.1552962,17.064964,3,60.2,665000
413,"Wrocław, Psie Pole, Polanowice, Kamieńskiego Henryka Michała",51.1641115,17.0475312,4,66.8,639000
414,"Wrocław, Psie Pole, Różanka, Obornicka",51.1463535,17.0219425,2,51.9,479000
415,"Wrocław, Fabryczna, Grabiszyn, Icchaka Lejba Pereca",51.0980783,17.0065838,2,52.0,520000
416,"Wrocław, Fabryczna, Pilczyce, Lotnicza",51.1349696,16.9535284,2,51.1,510000
417,"Wrocław, Śródmieście, Jedności Narodowej",51.123858,17.0448522,4,86.7,1213800
418,"Wrocław, Psie Pole, Mazepy",51.1394526,17.1213961,3,125.0,1160000
419,"Wrocław, Krzyki, ul. gen. Karola Kniaziewicza",51.1018335,17.0421984,2,51.0,475000
420,"Wrocław, Fabryczna, Spiżowa",51.1014705,17.0014367,2,41.3,399000
421,"Wrocław, Stare Miasto, Szczepin, Szczepińska",51.113762,17.0164999,3,56.4,530000
422,"Wrocław, Fabryczna, Spiżowa",51.1014705,17.0014367,2,32.8,379000
423,"Wrocław, Fabryczna, Dokerska",51.1400039,16.9646229,2,40.0,329000
424,"Wrocław, Krzyki, Księże Małe, Chorzowska",51.0751228,17.0828686,4,69.0,635000
425,"Wrocław, Krzyki, Partynice, ul. Kawalerzystów",51.0608064,17.0045165,2,67.0,549000
426,"Wrocław, Psie Pole, ul. Zielna",51.144007,17.1144938,3,54.25,669000
427,"Wrocław, Krzyki, Gaj, Orzechowa",51.0785822,17.043757,2,47.8,495000
428,"Wrocław, Krzyki, Jagodno, Buforowa",51.0517863,17.0582868,3,66.88,589000
429,"Wrocław, Psie Pole, Zgorzelisko, ul. Kurlandzka Psie Pole Zgorzelisko",51.1387022,17.1358603,2,33.0,362000
430,"Wrocław, Psie Pole, Karłowice, ul. Piotra Czajkowskiego",51.1409422,17.0603278,3,50.0,445000
431,"Wrocław, Fabryczna, Suwalska",51.1546807,16.9293442,4,75.35,753500
432,"Wrocław, Stare Miasto, Szczepin",51.1176215,17.0121574,3,62.0,670000
433,"Wrocław, Psie Pole, Nowogródzka",51.1411098,17.1347627,4,69.82,558846
434,"Wrocław, Stare Miasto, ul. Łęczycka",51.1197307,17.0123315,2,49.4,440000
435,"Wrocław, Psie Pole, Nowogródzka",51.1411098,17.1347627,2,55.64,462210
436,"Wrocław, Psie Pole, Wojnów",51.0974404,17.1606838,3,54.0,499000
437,"Wrocław, Śródmieście, Plac Grunwaldzki",51.1123373,17.0627448,3,62.0,720000
438,"Wrocław, Krzyki, Księże Wielkie, Rybnicka/Opolska",51.0810547,17.0788429,2,49.5,485000
439,"Wrocław, Śródmieście, Ołbin, Nowowiejska/Żeromskiego",51.1234232,17.0488232,2,55.59,490000
440,"Wrocław, Śródmieście, Plac Grunwaldzki",51.1123373,17.0627448,3,64.1,559000
441,"Wrocław, Fabryczna, Suwalska",51.1546807,16.9293442,2,44.67,442233
442,"Wrocław, Śródmieście, Trzebnicka",51.1257628,17.0360032,3,94.0,545000
443,"Wrocław, Śródmieście, Sępolno, Dembowskiego",51.1063701,17.0969998,2,47.0,499000
444,"Wrocław, Krzyki, Południe, Komuny Paryskiej",51.101719,17.046855,3,101.21,699000
445,"Wrocław, Psie Pole, Kleczków, wybrzeże J.C. Korzeniowskiego",51.130027,17.0329472,3,64.5,490000
446,"Wrocław, Krzyki, Huby, Hubska",51.0906746,17.0444192,2,45.0,385000
447,"Wrocław, Krzyki, Gaj, Borowska",51.0794501,17.0341422,2,51.0,489999
448,"Wrocław, Śródmieście, Ołbin, Orzeszkowej",51.1230072,17.05413,2,60.0,579999
449,"Wrocław, Fabryczna, Grabiszynek, ul. Racławicka",51.0808338,16.9975774,3,63.0,799000
450,"Wrocław, Krzyki, ul. ks. Czesława Klimasa",51.0802539,17.0614176,2,42.5,524000
451,"Wrocław, Psie Pole, Nowogródzka",51.1411098,17.1347627,3,54.53,460800
452,"Wrocław, Fabryczna, Suwalska",51.1546807,16.9293442,3,58.93,548049
453,"Wrocław, Fabryczna, Suwalska",51.1546807,16.9293442,2,50.94,509400
454,"Wrocław, Psie Pole, Nowogródzka",51.1411098,17.1347627,3,54.15,458220
455,"Wrocław, Fabryczna, Suwalska",51.1546807,16.9293442,3,56.29,534755
456,"Wrocław, Psie Pole, Nowogródzka",51.1411098,17.1347627,2,55.64,462780
457,"Wrocław, Fabryczna, Suwalska",51.1546807,16.9293442,4,75.35,730895
458,"Wrocław, Fabryczna, Pilczyce, ul. Pilczycka",51.1389985,16.9613991,2,40.0,330000
459,"Wrocław, Psie Pole, Nowogródzka",51.1411098,17.1347627,4,69.82,567970
460,"Wrocław, Śródmieście, Jaracza",51.1248051,17.0568758,3,68.0,750000
461,"Wrocław, Krzyki, Wojszyce",51.0625053,17.0322211,3,86.0,785000
462,"Wrocław, Krzyki, Jagodno",51.0516668,17.0576881,2,36.94,338647
463,"Wrocław, Krzyki, Jagodno",51.0516668,17.0576881,4,57.3,482917
464,"Wrocław, Fabryczna, Grabiszynek",51.0911158,16.9916243,4,86.0,889000
465,"Wrocław, Psie Pole, Ubocze",51.1045838,17.1649797,3,60.38,555000
466,"Wrocław, Krzyki, Huby, ul. Hubska",51.0906746,17.0444192,2,45.0,415000
467,"Wrocław, Krzyki, Klecina, ul. Partynicka",51.0640312,16.9931832,2,35.0,449000
468,"Wrocław, Krzyki, Borek, Hallera",51.0876369,17.0071343,2,69.26,699000
469,"Wrocław, Krzyki, Jagodno",51.0516668,17.0576881,2,39.7,475000
470,"Wrocław, Fabryczna, Grabiszyn, Rymarska, Wichrowa, Racławicka",51.07749159999999,16.9851034,2,39.0,559000
471,"Wrocław, Psie Pole, Sołtysowice, ul. Redycka",51.1559254,17.0639125,3,60.2,698000
472,"Wrocław, Krzyki, Księże Małe",51.0800549,17.0834195,2,64.0,550000
473,"Wrocław, Rynek, ul. Kuźnicza",51.1104764,17.0334737,2,52.0,950000
474,"Wrocław, Krzyki, Klecina, ul. Dożynkowa",51.0700227,16.9833368,3,50.4,650000
475,"Madalińskiego A.J., Wrocław, dolnośląskie",51.1136054,16.8875343,2,40.0,579999
476,"Wrocław, Psie Pole, Różanka, ul. Bezpieczna",51.1401998,17.0228883,3,50.5,435000
477,"Wrocław, Fabryczna, Stabłowice, Jodłowicka",51.1696053,16.8976106,2,36.27,450000
478,"Wrocław, Krzyki, Gaj, ul. Radkowska",51.0736681,17.0448192,3,80.0,675000
479,"Wrocław, Śródmieście, Sępolno",51.11062159999999,17.0947398,2,42.0,427000
480,"Wrocław, Śródmieście, Biskupin",51.1006338,17.0998089,2,36.26,379000
481,"Wrocław, Psie Pole, Lipa Piotrowska, Szałwiowa",51.1773708,16.9999293,2,54.68,529000
482,"Wrocław, Śródmieście, ul. Norberta Barlickiego",51.1225461,17.0497218,3,100.0,720000
483,"Wrocław, Fabryczna, Maślice, ul. Maślicka",51.1556322,16.9364771,3,44.22,370900
484,"Wrocław, Śródmieście, Ignacego Daszyńskiego",51.1245015,17.05421,4,108.84,890000
485,"Wrocław, Krzyki, Jagodno",51.0516668,17.0576881,2,37.18,361179
486,"Wrocław, Krzyki, Jagodno, Kajdasza",51.053753,17.0546358,2,37.72,369279
487,"Wrocław, Krzyki, Brochów, Boiskowa",51.0479879,17.0877407,2,41.35,353542
488,"Wrocław, Krzyki, Jagodno",51.0516668,17.0576881,2,40.0,378000
489,"Wrocław, Krzyki, Jagodno",51.0516668,17.0576881,2,37.0,357000
490,"Wrocław, Krzyki, Jagodno, Schuberta",51.0510126,17.0658377,5,109.82,736000
491,"Wrocław, Krzyki, Jagodno, Schuberta",51.0510126,17.0658377,2,56.7,553000
492,"Wrocław, Krzyki, Huby, Gajowa",51.0924032,17.0405996,3,89.0,660000
493,"Wrocław, Psie Pole, Kiełczowska",51.1459638,17.1327642,3,60.0,495000
494,"Wrocław, Krzyki, Bieńkowice",51.05184759999999,17.0949273,2,46.1,385000
495,"Wrocław, Fabryczna, Grabiszynek, al. gen. Józefa Hallera",51.0901252,16.9953261,2,42.0,449000
496,"Wrocław, Krzyki, Jagodno",51.0516668,17.0576881,2,41.0,479000
497,"Wrocław, Psie Pole, Swojczyce",51.1153559,17.1360744,2,41.0,465000
498,"Wrocław, Stare Miasto, Szczepin",51.1176215,17.0121574,2,40.7,479000
499,"Wrocław, Krzyki, Jagodno, Buforowa",51.0517863,17.0582868,3,53.9,449000
500,"Wrocław, Krzyki, Brochów, Boiskowa",51.0479879,17.0877407,2,42.29,369890
501,"Wrocław, Krzyki, Jagodno, Buforowa",51.0517863,17.0582868,3,51.1,416000
502,"Wrocław, Fabryczna, Kuźniki, Sarbinowska",51.1276119,16.9463615,2,53.28,478987
503,"Wrocław, Psie Pole, Zakrzów, Zatorska",51.1603498,17.1338343,3,55.03,483713
504,"Wrocław, Krzyki, Jagodno, Edmunda Kajdasza",51.053753,17.0546358,4,69.42,707390
505,"Wrocław, Stare Miasto, Szczepin, ul. Strzegomska",51.1130857,17.0011973,2,43.19,489000
506,"Wrocław, Fabryczna, Pilczyce, Lotnicza",51.1349696,16.9535284,3,61.8,549000
507,"Wrocław, Krzyki, ul. Powstańców Śląskich",51.0893253,17.0159794,3,88.9,995000
508,"Wrocław, Krzyki, Księże Małe, Czechowicka",51.0817404,17.0841444,2,40.09,548999
509,"Wrocław, Stare Miasto, Szczepin, ul. Młodych Techników",51.1163921,17.0127619,2,31.0,339000
510,"Wrocław, Krzyki, ul. Zwycięska",51.0596713,17.0056292,3,60.06,660000
511,"Wrocław, Stare Miasto, ul. Legnicka",51.1136232,17.005737,1,23.26,340000
512,"Wrocław, Psie Pole, ul. Gorlicka",51.1441781,17.1183903,3,53.15,493000
513,"Wrocław, Fabryczna, Stabłowice, ul. Stabłowicka",51.1642808,16.8971,4,70.0,574110
514,"Wrocław, Krzyki, ul. Zwycięska",51.0596713,17.0056292,2,38.56,462720
515,"Wrocław, Psie Pole, Kleczków, ul. Kleczkowska",51.1271107,17.0246632,2,58.0,450000
516,"Wrocław, Krzyki, Gaj, Krynicka",51.080103,17.0481479,3,68.3,508000
517,"Wrocław, Fabryczna, Stabłowice",51.15955049999999,16.9003899,3,58.1,498000
518,"Wrocław, Śródmieście, ul. Zakładowa",51.1298789,17.0414753,2,40.5,499000
519,"Wrocław, Fabryczna, Żerniki, ul. Macieja Przybyły",51.1158726,16.9169839,4,78.4,802038
520,"Wrocław, Fabryczna, Żerniki, ul. Macieja Przybyły",51.1158726,16.9169839,3,52.96,543393
521,"Wrocław, Fabryczna, Żerniki, ul. Macieja Przybyły",51.1158726,16.9169839,2,46.89,503193
522,"Wrocław, Psie Pole, Zgorzelisko",51.13788,17.1299946,2,45.88,362000
523,"Wrocław, Krzyki, Jagodno",51.0516668,17.0576881,2,40.32,371407
524,"Wrocław, Krzyki, Brochów, ul. Boiskowa",51.0479879,17.0877407,4,61.0,510000
525,"Wrocław, Krzyki, Brochów, Boiskowa",51.0479879,17.0877407,3,52.51,452000
526,"Wrocław, Krzyki, ul. Jutrzenki",51.0714903,16.9798608,2,41.97,395985
527,"Wrocław, Fabryczna, Metalowców",51.1300386,16.9551649,3,33.0,404700
528,"Wrocław, Krzyki, Widna",51.0848085,17.0448258,3,51.0,589999
529,"Wrocław, Krzyki, Gwiaździsta",51.0972503,17.0216121,2,42.0,495000
530,"Wrocław, Fabryczna, Maślice, Suwalska",51.1546807,16.9293442,2,45.0,489890
531,"Wrocław, Krzyki, Jagodno",51.0516668,17.0576881,2,30.65,338253
532,"Wrocław, Psie Pole, Zgorzelisko",51.13788,17.1299946,1,33.37,263000
533,"Wrocław, Śródmieście, Ołbin",51.1220467,17.0544595,2,29.0,442700
534,"Wrocław, Śródmieście, Ołbin",51.1220467,17.0544595,2,29.0,476000
535,"Wrocław, Śródmieście, Ołbin",51.1220467,17.0544595,3,67.5,903400
536,"Wrocław, Śródmieście, Ołbin",51.1220467,17.0544595,3,67.6,842000
537,"Wrocław, Krzyki, Jagodno",51.0516668,17.0576881,2,38.3,339364
538,"Wrocław, Krzyki, Jagodno",51.0516668,17.0576881,2,42.9,389244
539,"Wrocław, Śródmieście, Ołbin",51.1220467,17.0544595,4,87.0,1056200
540,"Wrocław, Fabryczna, Grabiszyn, ul. Stalowowolska",51.0917209,16.9991219,2,50.2,535000
541,"Wrocław, Krzyki, Gaj, ul. Jerzego Kukuczki",51.0718286,17.0358325,3,52.43,499900
542,"Wrocław, Śródmieście, Ołbin",51.1220467,17.0544595,1,34.64,467200
543,"Wrocław, Krzyki, Jagodno",51.0516668,17.0576881,2,43.19,403610
544,"Wrocław, Fabryczna, Maślice, al. Śliwowa",51.155347,16.943674,5,120.8,776132
545,"Wrocław, Krzyki, Wojszyce, Pawia",51.0665003,17.038673,3,69.59,664932
546,"Wrocław, Krzyki, Wojszyce, Pawia",51.0665003,17.038673,2,32.0,411264
547,"Wrocław, Krzyki, Jagodno, Kajdasza",51.053753,17.0546358,3,52.94,475931
548,"Wrocław, Krzyki, Gaj, Jabłeczna",51.0798644,17.037932,3,62.5,568750
549,"Wrocław, Krzyki, Gaj, Krynicka",51.080103,17.0481479,4,83.49,709000
550,"Wrocław, Fabryczna, Kozanów, Celtycka",51.1379663,16.9804463,4,76.1,688000
551,"Wrocław, Krzyki, Jagodno",51.0516668,17.0576881,2,42.88,400715
552,"Wrocław, Krzyki, ul. Boiskowa",51.0479879,17.0877407,2,42.0,356000
553,"Wrocław, Krzyki, Ołtaszyn",51.0533538,17.0200321,1,28.0,320000
554,"Wrocław, Śródmieście, Bolesława Drobnera",51.1180458,17.0374418,4,182.69,2283881
555,"Wrocław, Krzyki, Krucza",51.0934803,17.007174,4,57.0,559800
556,"Wrocław, Stare Miasto, Dmowskiego",51.1169476,17.0215822,2,40.34,630000
557,"Wrocław, Krzyki, Jagodno, Beaty Artemskiej",51.0558101,17.0523673,3,69.14,665000
558,"Wrocław, Krzyki, Jagodno, Ryszarda Wagnera",51.0527387,17.0609399,2,54.0,523800
559,"Wrocław, Fabryczna, Muchobór Mały, ul. Szkocka",51.1091443,16.9633026,3,66.0,649400
560,"Wrocław, Fabryczna, Grabiszyn",51.0911158,16.9916243,3,58.0,539900
561,"Wrocław, Stare Miasto, Kolejowa",51.1025044,17.0193298,3,60.5,710000
562,"Wrocław, Krzyki, ul. Przyjaźni",51.0670921,16.9964144,2,52.0,615000
563,"Wrocław, Krzyki, Jagodno, Barbary Kostrzewskiej",51.0581856,17.0507981,4,104.21,1499000
564,"Wrocław, Fabryczna, Nowy Dwór",51.1153476,16.9583346,3,58.4,458990
565,"Wrocław, Krzyki, Gaj, Krynicka",51.080103,17.0481479,2,51.0,499000
566,"Wrocław, Psie Pole, Różanka",51.1432965,17.0203339,3,52.0,532000
567,"Wrocław, Psie Pole, Zakrzów, Kasztelańska",51.1574586,17.1343273,4,64.41,569000
568,"Wrocław, Fabryczna, Pilczyce, Lotnicza",51.1349696,16.9535284,2,38.16,498000
569,"Wrocław, Psie Pole, Kleczków, Zegadłowicza Emila",51.1285576,17.0327812,3,53.9,439900
570,"Wrocław, Śródmieście, Wilhelma Roentgena",51.1147773,17.0634795,4,98.46,999000
571,"Wrocław, Fabryczna, ul. Królewiecka",51.1488144,16.9304529,2,52.23,559000
572,"Wrocław, Psie Pole, Różanka",51.1432965,17.0203339,2,40.6,446600
573,"Wrocław, Stare Miasto, Zachodnia",51.1167319,17.0098192,3,48.1,469000
574,"Porajowska, Wrocław, dolnośląskie",51.1540441,16.9458968,5,163.0,1499000
575,"Wrocław, Śródmieście, Ołbin, Jedności Narodowej",51.1258382,17.0466067,1,55.0,467500
576,"Wrocław, Fabryczna, Grabiszyn, Szczęśliwa",51.0976852,17.0121303,3,49.8,500500
577,"Wrocław, Fabryczna, Maślice, Kozia",51.1635644,16.9270273,1,20.5,269000
578,"Wrocław, Śródmieście, Ołbin, Jaracza Stefana",51.1248051,17.0568758,3,62.31,623100
579,"Wrocław, Krzyki, Gaj, Krynicka",51.080103,17.0481479,2,51.87,459000
580,"Wrocław, Śródmieście, Ołbin, Jedności Narodowej",51.1258382,17.0466067,3,91.1,790000
581,"Wrocław, Krzyki, Przyjaźni",51.0670921,16.9964144,2,54.77,603000
582,"Wrocław, Nadodrze, Niemcewicza Juliana Ursyna",51.1212749,17.0390339,2,53.9,550000
583,"Wrocław, Nadodrze, Św. Wincentego",51.1227936,17.0346451,2,34.5,479000
584,"Wrocław, Fabryczna, Żerniki, Rumiankowa",51.1214057,16.9241552,2,48.0,519000
585,"Wrocław, Psie Pole, Różanka, Bałkańska",51.1366013,17.016976,3,60.0,789900
586,"Wrocław, Śródmieście, Sępolno, Głowackiego Bartosza",51.1118963,17.0958299,3,89.0,1150000
587,"Wrocław, Krzyki, Klecina, Wałbrzyska",51.0640616,16.9793268,1,28.3,400000
588,"Wrocław, Śródmieście, Biskupin, Bacciarellego",51.1035099,17.1144874,2,40.23,435000
589,"Wrocław, Krzyki, Zwycięska",51.0596713,17.0056292,3,67.0,680000
590,"Wrocław, Fabryczna, Oporów, Honoriusza Balzaka",51.0762432,16.9592207,3,66.7,750000
591,"Wrocław, Krzyki, Klecina, ul. Cukrowa",51.0627753,16.9799712,3,75.0,900000
592,"Wrocław, Fabryczna, Stabłowice, ul. Jodłowicka",51.1696053,16.8976106,3,58.0,598000
593,"Wrocław, Krzyki, Jagodno, Komedy",51.053753,17.0546358,2,52.0,517000
594,"Wrocław, Śródmieście, Plac Grunwaldzki, Marii Curie Skłodowskiej",51.1104474,17.0629107,4,87.0,760000
595,"Wrocław, Fabryczna, Strachowice, Władysława Zarembowicza",51.1087134,16.8926492,1,23.0,297000
596,"Wrocław, Krzyki, Miernicza",51.1030078,17.0505486,2,42.33,399000
597,"Wrocław, Fabryczna, Muchobór Wielki, LCC Corp",51.0975756,16.9483105,3,59.79,649000
598,"Wrocław, Krzyki, Tarnogaj",51.0833068,17.0617559,2,48.0,654900
599,"Wrocław, Krzyki, Brochów, Centralna",51.0620094,17.0775297,3,61.97,569000
600,"Wrocław, Krzyki, Wojszyce, Iwaszkiewicza",51.0559995,17.0361725,2,44.7,519000
601,"Wrocław, Psie Pole, Ludwika Kubali",51.1565802,17.037495,3,99.14,999564
602,"Wrocław, Fabryczna, Grabiszyn, al. gen. Józefa Hallera",51.0901252,16.9953261,3,63.0,789000
603,"Wrocław, Krzyki, Brochów, al. Róż",51.0525605,17.0868002,4,75.33,665540
604,"Wrocław, Krzyki, Brochów, al. Róż",51.0525605,17.0868002,3,58.15,465781
605,"Wrocław, Krzyki, Brochów, al. Róż",51.0525605,17.0868002,2,33.19,331070
606,"Wrocław, Krzyki, Brochów, al. Róż",51.0525605,17.0868002,1,33.66,319770
607,"Wrocław, Krzyki, Kamienna",51.0886203,17.0330666,2,37.4,380000
608,"Wrocław, Fabryczna, Grabiszyn",51.0911158,16.9916243,3,60.0,479000
609,"Wrocław, Krzyki, Gaj",51.0756442,17.0411497,2,35.0,419900
610,"Wrocław, Śródmieście, Stanisława Dubois",51.1178981,17.0306639,3,68.95,528000
611,"Wrocław, Stare Miasto, Podwale",51.1053122,17.0279721,2,36.92,489000
612,"Wrocław, Fabryczna, Gądów Mały, Balonowa",51.1220574,16.9649683,4,70.1,580000
613,"Wrocław, Stare Miasto, Szczepin, Lubińska",51.1173735,17.005275,2,39.1,413000
614,"Wrocław, Psie Pole, Zakrzów",51.166611,17.1339871,4,75.0,574000
615,"Wrocław, Krzyki, Jagodno, Buforowa",51.0517863,17.0582868,3,56.41,552800
616,"Wrocław, Stare Miasto, Szczepin, Długa",51.1213043,17.0127913,4,77.4,870000
617,"Wrocław, Fabryczna, Grabiszyn, Krucza",51.0934008,17.0044949,3,99.4,1580460
618,"Wrocław, Fabryczna, Stabłowice, ul. Łomnicka",51.1616341,16.9081575,2,48.63,500000
619,"Wrocław, Krzyki, Klecina, Kościelna",51.0641357,16.9814847,2,36.51,399000
620,"Wrocław, Krzyki, Tarnogaj, ul. Piękna",51.0848578,17.0552092,3,65.0,755000
621,"Wrocław, Śródmieście, Kleczkowska",51.1271107,17.0246632,2,54.0,599000
622,"Wrocław, Psie Pole, Karłowice",51.1389665,17.0492602,5,84.93,790000
623,"Wrocław, Krzyki, Ołtaszyn",51.0533538,17.0200321,4,100.0,1039000
624,"Wrocław, Stare Miasto, ul. Długa",51.1210389,17.0132445,2,39.29,495054
625,"Wrocław, Fabryczna, Pilczyce, Bobrzańska",51.1353999,16.9805137,3,64.01,469000
626,"Wrocław, Krzyki, ul. Tadeusza Kościuszki",51.1008268,17.0418116,2,32.0,489000
627,"Wrocław, Fabryczna, Popowice, ul. Białowieska",51.1273108,16.9934396,2,43.24,485000
628,"Wrocław, Śródmieście, Plac Grunwaldzki, Ksawerego Liskego",51.1151882,17.069545,4,105.87,990000
629,"Wrocław, Stare Miasto, Zyndrama z Maszkowic",51.11585,17.0266934,2,58.75,670000
630,"Wrocław, Krzyki, Południe, Jesionowa",51.0872176,17.0513668,2,40.92,539000
631,"Wrocław, Krzyki, Ołtaszyn",51.0533538,17.0200321,2,55.0,545000
632,"Wrocław, Fabryczna, Grabiszyn, Spiżowa",51.1014705,17.0014367,3,55.0,779000
633,"Wrocław, Fabryczna, Stabłowice, Olbrachtowska",51.1540002,16.9057338,2,47.0,479400
634,"Wrocław, Stare Miasto, ul. św. Barbary",51.1119555,17.0249005,3,47.0,549000
635,"Wrocław, Psie Pole, Bierutowska",51.1540364,17.1367024,1,25.5,319000
636,"Wrocław, Psie Pole, Bierutowska",51.1540364,17.1367024,1,26.3,329000
637,"Wrocław, Krzyki, Krucza",51.0934803,17.007174,3,54.0,445000
638,"Wrocław, Śródmieście, Ołbin",51.1220467,17.0544595,4,92.54,890000
639,"Wrocław, Fabryczna, Muchobór Wielki, Kunickiego",51.0907588,16.9373492,3,47.53,519000
640,"Wrocław, Śródmieście, Ołbin",51.1220467,17.0544595,2,68.0,649900
641,"Wrocław, Fabryczna, Stalowa",51.0979964,17.0017842,2,66.5,499900
642,"Wrocław, Krzyki, Jagodno",51.0516668,17.0576881,2,46.0,525000
643,"Wrocław, Psie Pole, Zakrzów, Zatorska",51.1603498,17.1338343,2,53.99,529000
644,"Wrocław, Psie Pole, Kleczków, Emila Zegadłowicza",51.1285576,17.0327812,3,53.9,449900
645,"Wrocław, Krzyki, Południe",51.0914689,17.0431757,3,72.18,1189509
646,"Wrocław, Krzyki, Południe",51.0914689,17.0431757,2,89.54,728800
647,"Wrocław, Psie Pole, Kleczków",51.12979499999999,17.0296652,2,73.18,730000
648,"Wrocław, Fabryczna, Gądów Mały, ul. Balonowa",51.1220574,16.9649683,4,75.0,899999
649,"Wrocław, Krzyki, Jagodno, Igora Strawińskiego",51.0546344,17.0588725,2,35.89,409800
650,"Wrocław, Nadodrze, ul. Bolesława Chrobrego",51.1227944,17.0346759,3,85.0,899000
651,"Wrocław, Krzyki, Południe, Tadeusza Kościuszki",51.1008268,17.0418116,2,52.0,450000
652,"Wrocław, Psie Pole, Karłowice, ul. ks. Norberta Bonczyka",51.1370876,17.0386228,3,59.7,549000
653,"Wrocław, Stare Miasto, Szczepin, Gnieźnieńska",51.1224314,17.0119577,4,84.26,928560
654,"Wrocław, Krzyki, Jagodno",51.0516668,17.0576881,2,40.52,367345
655,"Wrocław, Fabryczna, Kuźniki, Sarbinowska",51.1276119,16.9463615,3,67.97,640277
656,"Wrocław, Stare Miasto, Szczepin, Gnieźnieńska",51.1224314,17.0119577,2,38.33,508204
657,"Wrocław, Fabryczna, Kuźniki, Sarbinowska",51.1276119,16.9463615,2,53.27,478987
658,"Wrocław, Psie Pole, Zakrzów, Odolanowska",51.1634115,17.1423649,4,77.22,704000
659,"Wrocław, Śródmieście, Ołbin, ul. Bolesława Prusa, Ogrody Reja",51.1196646,17.0502845,2,44.0,585900
660,"Wrocław, Krzyki, Jagodno",51.0516668,17.0576881,2,41.87,393426
661,"Wrocław, Psie Pole, Zakrzów",51.166611,17.1339871,1,22.6,269000
662,"Wrocław, Fabryczna, Kozanowska",51.13435,16.975369,1,33.6,372000
663,"Wrocław, Psie Pole, Swojczyce, Olimpia Port",51.1080601,17.1217119,4,82.0,1099000
664,"Wrocław, Psie Pole, Zakrzów, Stoczniowa",51.1626576,17.1314168,3,53.0,579999
665,"Wrocław, Krzyki, Wojszyce",51.0625053,17.0322211,2,30.33,349509
666,"Wrocław, Krzyki, Partynice, Bajeczna",51.0548874,17.0068452,4,103.0,1190000
667,"Wrocław, Krzyki, Hallera Józefa, gen.",51.0861995,17.0090612,3,76.82,560000
668,"Wrocław, Fabryczna, Pilczyce, Murarska",51.1370237,16.9566614,4,67.0,673100
669,"Wrocław, Krzyki, Południe, Miernicza",51.1030078,17.0505486,2,42.5,399000
670,"Wrocław, Psie Pole, Swojczyce, Wschodnia",51.112793,17.1477294,3,56.0,419900
671,"Wrocław, Nadodrze, Trzebnicka",51.1242414,17.035718,3,50.0,569000
672,"Wrocław, Śródmieście, Biskupin, Spółdzielcza",51.1040522,17.1037189,2,37.0,380000
673,"Wrocław, Stare Miasto, Dmowskiego Romana",51.118126,17.0207809,1,32.5,569000
674,"Wrocław, Krzyki, Powstańców Śląskich",51.0893253,17.0159794,2,87.0,850000
675,"Wrocław, Fabryczna, Oporów",51.07731769999999,16.9633676,2,47.5,541000
676,"Wrocław, Krzyki, Gajowicka",51.0900196,17.0074738,3,56.03,535000
677,"Wrocław, Krzyki, Przestrzenna",51.0892525,17.0388936,3,54.0,450000
678,"Wrocław, Stare Miasto, Walońska",51.1046791,17.0507465,2,44.82,899000
679,"Wrocław, Fabryczna, Stabłowice, ul. Stabłowicka 4a",51.15526269999999,16.89028,3,54.0,530000
680,"Wrocław, Śródmieście, Sępolno",51.11062159999999,17.0947398,2,41.0,499600
681,"Wrocław, Fabryczna, Grabiszyn, Grabiszyńska",51.0911158,16.9916243,3,51.7,539000
682,"Wrocław, Śródmieście, Nowowiejska",51.1205498,17.0551953,4,64.0,666400
683,"Wrocław, Psie Pole, Różanka, Mochnackiego Maurycego",51.1416749,17.0385651,4,73.1,669000
684,"Wrocław, Nadodrze, Kazimierza Jagiellończyka",51.1214333,17.0350099,5,74.59,699000
685,"Wrocław, Fabryczna, Muchobór Wielki, Buczacka",51.1010157,16.9368748,3,67.0,737000
686,"Wrocław, Krzyki, Wojszyce, Klasztorna",51.0605968,17.0442231,3,68.11,799000
687,"Wrocław, Krzyki, Wojszyce, Granitowa",51.0671244,17.0409706,3,67.0,799000
688,"Wrocław, Krzyki, Gaj, Świeradowska",51.0770033,17.0430176,4,63.14,670000
689,"Wrocław, Śródmieście, Jedności Narodowej",51.123858,17.0448522,3,55.0,693000
690,"Wrocław, Krzyki, Powstańców Śląskich",51.0893253,17.0159794,4,88.0,862400
691,"Wrocław, Krzyki, Huby, Tomaszowska",51.0892525,17.0388936,2,55.0,595000
692,"Wrocław, Fabryczna, Grabiszyn, Krucza",51.0934008,17.0044949,3,55.53,549000
693,"Wrocław, Krzyki, Tadeusza Zielińskiego",51.0989093,17.0211789,3,54.7,510000
694,"Wrocław, Krzyki, Borek, Januszowicka",51.082249,17.0122124,2,80.01,640000
695,"Wrocław, Fabryczna, Kozanów, Pałucka",51.1347945,16.9772678,6,231.0,2310000
696,"Dąbrowskiego Henryka, Wrocław, dolnośląskie",51.1009821,17.041901,5,109.47,1600000
697,"Wrocław, Psie Pole, Kleczków, Kleczkowska",51.1271107,17.0246632,3,61.98,1000000
698,"Wrocław, Śródmieście, Dąbie, Rzeźbiarska",51.0998815,17.0835392,3,126.0,2550000
699,"Wrocław, Krzyki, Tarnogaj, Piękna",51.0848578,17.0552092,4,49.92,585000
700,"Wrocław, Fabryczna, Muchobór Wielki, Buczacka",51.1010157,16.9368748,3,70.2,579000
701,"Wrocław, Śródmieście, Biskupin",51.1006338,17.0998089,3,54.0,599000
702,"Wrocław, Psie Pole, Swojczyce, Marca Polo",51.1109378,17.1169706,3,63.02,707500
703,"Wrocław, Psie Pole, Swojczyce, Marca Polo",51.1109378,17.1169706,4,74.1,758500
704,"Wrocław, Psie Pole, Zakrzów, Odolanowska",51.1634115,17.1423649,3,46.67,439000
705,"Wrocław, Psie Pole, Zakrzów, Odolanowska",51.1634115,17.1423649,2,37.06,384000
706,"Wrocław, Krzyki, Księże Małe, Rybnicka",51.0807625,17.0854151,3,62.6,564652
707,"Wrocław, Krzyki, Racławicka",51.0808338,16.9975774,3,53.13,523000
708,"Wrocław, Nadodrze, Henryka Brodatego",51.1187543,17.0334637,2,53.0,425000
709,"Wrocław, Psie Pole, Karłowice, Bolesława Krzywoustego",51.1380486,17.0747105,3,83.51,720000
710,"Wrocław, Krzyki, Jana Władysława Dawida",51.093948,17.0399806,3,64.89,648000
711,"Wrocław, Krzyki, Jagodno",51.0516668,17.0576881,1,27.1,298523
712,"Wrocław, Nadodrze, Trzebnicka",51.1242414,17.035718,3,116.15,949000
713,"Wrocław, Psie Pole, Różanka, Jugosłowiańska",51.1366896,17.0218039,3,53.9,499000
714,"Wrocław, Krzyki, Borek, Sokola",51.0827588,17.0071892,4,94.0,819000
715,"Wrocław, Psie Pole, Zielna",51.144007,17.1144938,1,34.67,345000
716,"Wrocław, Śródmieście, Plac Grunwaldzki, Norwida Cypriana Kamila",51.1100469,17.0625729,2,53.8,485000
717,"Wrocław, Psie Pole, Zielna",51.144007,17.1144938,2,42.94,450000
718,"Wrocław, Śródmieście, Bolesława Chrobrego",51.1227944,17.0346759,3,98.0,849000
719,"Wrocław, Krzyki, Gaj, Orzechowa",51.0785822,17.043757,3,63.0,599000
720,"Wrocław, Krzyki, Tadeusza Zielińskiego",51.0989093,17.0211789,1,27.02,319000
721,"Wrocław, Śródmieście, Ołbin, Drobnera Bolesława",51.1180458,17.0374418,3,94.21,1289000
722,"Wrocław, Nadodrze, Poniatowskiego Józefa",51.11913939999999,17.0419192,1,35.83,839000
723,"Wrocław, Nadodrze, Poniatowskiego Józefa",51.11913939999999,17.0419192,1,32.29,649000
724,"Wrocław, Psie Pole, Poleska",51.1441127,17.1276896,4,100.0,937000
725,"Wrocław, Śródmieście, Piastowska",51.1153944,17.0607639,3,82.02,599000
726,"Wrocław, Krzyki, Księże Małe, Chorzowska",51.0751228,17.0828686,3,48.35,389000
727,"Wrocław, Krzyki,  Gwiaździsta",51.0972503,17.0216121,2,36.56,648000
728,"Wrocław, Stare Miasto, Bolesława Prusa",51.1196646,17.0502845,2,50.77,849000
729,"Wrocław, Stare Miasto, Bolesława Prusa",51.1196646,17.0502845,2,48.68,759000
730,"Wrocław, Krzyki, Borek, al. Wiązowa",51.0827728,17.0202385,1,17.0,270000
731,"Wrocław, Śródmieście, Mikołaja Reja",51.1170424,17.0582592,3,47.01,549000
732,"Wrocław, Stare Miasto, Więzienna",51.1123242,17.0323954,4,81.94,1349000
733,"Wrocław, Stare Miasto, Tadeusza Zielińskiego",51.1000623,17.0227569,3,50.0,500000
734,"Wrocław, Śródmieście, Podwale",51.1053122,17.0279721,2,52.26,1650000
735,"Wrocław, Śródmieście, Ołbin",51.1220467,17.0544595,2,42.75,909000
736,"Wrocław, Śródmieście, Jedności Narodowej",51.123858,17.0448522,2,51.6,593400
737,"Wrocław, Stare Miasto, Czysta",51.1034226,17.0329674,2,53.39,687000
738,"Wrocław, Stare Miasto, Dmowskiego Romana",51.118126,17.0207809,1,32.5,525000
739,"Wrocław, Stare Miasto, Tęczowa",51.1049417,17.0118099,1,44.0,385000
740,"Wrocław, Stare Miasto, Bolesława Prusa",51.1196646,17.0502845,2,52.0,979000
741,"Wrocław, Fabryczna, Grabiszyn",51.0911158,16.9916243,3,49.5,549450
742,"Wrocław, Krzyki, Jagodno, Komedy Krzysztofa",51.053753,17.0546358,4,67.67,567616
743,"Wrocław, Krzyki, Jagodno, Komedy Krzysztofa",51.053753,17.0546358,3,64.0,591444
744,"Wrocław, Śródmieście, Jedności Narodowej",51.123858,17.0448522,2,45.61,578107
745,"Konna, Wrocław, dolnośląskie",51.0513584,17.0042812,3,62.24,649000
746,"Wrocław, Psie Pole, Sołtysowice, Rafała Wojaczka",51.1468562,17.0707603,3,63.0,667000
747,"Wrocław, Fabryczna, ul. Pilczycka",51.1384271,16.9634371,1,31.0,419999
748,"Wrocław, Stare Miasto, Gwiaździsta",51.0972503,17.0216121,3,106.0,2990000
749,"Wrocław, Fabryczna, Stabłowice, Stabłowicka",51.1642808,16.8971,2,47.89,416251
750,"Wrocław, Fabryczna, Grabiszyn, Grabiszyńska",51.0911158,16.9916243,2,33.19,530000
751,"Wrocław, Fabryczna, Grabiszyn, Grabiszyńska",51.0911158,16.9916243,2,33.3,530000
752,"Wrocław, Krzyki, Brzoskwiniowa",51.0809025,17.0378776,1,25.5,357000
753,"Wrocław, Nadodrze, Poniatowskiego Józefa",51.11913939999999,17.0419192,2,45.81,1019000
754,"Wrocław, Stare Miasto, Szczepin",51.1176215,17.0121574,1,26.0,365000
755,"Wrocław, Krzyki, Ślężna 96",51.08219330000001,17.0261607,2,34.54,340000
756,"Wrocław, Psie Pole, Zakrzów, Odolanowska",51.1634115,17.1423649,2,41.14,424000
757,"Wrocław, Psie Pole, Inflancka",51.1450026,17.1318533,3,57.1,493000
758,"Wrocław, Fabryczna, Grabiszynek, ul. Racławicka",51.0808338,16.9975774,3,57.38,654132
759,"Wrocław, Krzyki, Jagodno",51.0516668,17.0576881,4,61.83,528715
760,"Wrocław, Stare Miasto, Szczepin, Gnieźnieńska",51.1224314,17.0119577,4,74.15,878289
761,"Wrocław, Krzyki, Południe, Tadeusza Kościuszki",51.1008268,17.0418116,2,43.0,440018
762,"Wrocław, Krzyki, Jagodno",51.0516668,17.0576881,1,26.25,288208
763,"Wrocław, Fabryczna, Grabiszyn",51.0911158,16.9916243,6,83.6,990000
764,"Wrocław, Psie Pole, Gorlicka",51.1441781,17.1183903,2,49.0,495000
765,"Wrocław, Fabryczna, Kozanów, Dzielna",51.1383129,16.9731934,2,53.15,405000
766,"Wrocław, Fabryczna, Kuźniki, Hermanowska",51.1234712,16.9515834,2,54.94,450000
767,"Wrocław, Śródmieście, Jedności Narodowej",51.123858,17.0448522,3,66.4,590000
768,"Wrocław, Psie Pole, Kleczków, Kleczkowska",51.1271107,17.0246632,2,63.18,430000
769,"Wrocław, Psie Pole, Zatorska",51.1603498,17.1338343,2,40.0,445000
770,"Wrocław, Krzyki, Gaj",51.0756442,17.0411497,2,43.0,540000
771,"Wrocław, Fabryczna, Popowice",51.126858,16.9863307,2,40.0,549000
772,"Wrocław, Śródmieście, Otwarta",51.1194151,17.02936,2,34.5,329000
773,"Wrocław, Śródmieście, Ołbin, ul. Andrzeja Cinciały",51.1259711,17.0523309,2,47.5,439000
774,"Wrocław, Fabryczna, Popowice, ul. Popowicka",51.1276477,16.9897248,2,35.0,440000
775,"Wrocław, Krzyki, Wojszyce, ul. Granitowa",51.0671244,17.0409706,5,142.0,945000
776,"Wrocław, Krzyki, Sąsiedzka",51.0655409,16.9933335,2,49.16,498000
777,"Wrocław, Psie Pole, Lipa Piotrowska, Cynamonowa",51.1759675,16.9987194,3,62.0,445000
778,"Wrocław, Fabryczna, Stabłowice, ul. Kokosowa",51.1562125,16.9015223,3,66.6,695000
779,"Wrocław, Śródmieście, Ołbin, ul. Jedności Narodowej",51.1258382,17.0466067,2,50.0,720000
780,"Wrocław, Psie Pole, Zakrzów, Odolanowska",51.1634115,17.1423649,2,35.98,384000
781,"Wrocław, Stare Miasto, Szczepin, Gnieźnieńska",51.1224314,17.0119577,1,38.14,521049
782,"Wrocław, Śródmieście, Bolesława Chrobrego",51.1227944,17.0346759,2,54.0,559000
783,"Wrocław, Stare Miasto, Szczepin, Stefana Czarnieckiego",51.115777,17.0074108,3,57.5,479000
784,"Wrocław, Krzyki, ul. Racławicka",51.0808338,16.9975774,2,40.0,579000
785,"Wrocław, Psie Pole, ul. Chorwacka",51.1383945,17.025266,2,40.69,500447
786,"Wrocław, Psie Pole, ul. Ferdynanda Magellana",51.1109166,17.1212255,5,78.0,920400
787,"Wrocław, Krzyki, Południe",51.0914689,17.0431757,3,78.0,795000
788,"Wrocław, Fabryczna, Popowice",51.126858,16.9863307,2,35.3,433000
789,"Wrocław, Psie Pole, Kiełczowska",51.1459638,17.1327642,2,51.4,499900
790,"Wrocław, Fabryczna, Muchobór Wielki",51.0975756,16.9483105,5,113.7,1046040
791,"Wrocław, Krzyki, Księże Małe",51.0800549,17.0834195,3,62.5,563600
792,"Wrocław, Psie Pole, Zatorska",51.1603498,17.1338343,2,43.0,440000
793,"Wrocław, Psie Pole, Kleczków",51.12979499999999,17.0296652,1,35.0,339000
794,"Wrocław, Fabryczna, Grabiszyn, Żelazna",51.0970202,17.0093461,2,51.0,460000
795,"Wrocław, Krzyki, Zaolziańska ok Komandorska Powstańców Ślaskich Krzyki",51.0893253,17.0159794,2,47.0,555000
796,"Wrocław, Śródmieście, Władysława Łokietka",51.1185424,17.0354024,3,92.64,880000
797,"Wrocław, Krzyki, Południe, gen. Kazimierza Pułaskiego",51.1002922,17.0456324,2,54.49,519900
798,"Wrocław, Fabryczna, Grabiszyn",51.0911158,16.9916243,2,69.26,699000
799,"Wrocław, Krzyki, Jagodno, ul. Buforowa",51.0517863,17.0582868,3,50.45,620000
800,"Wrocław, Stare Miasto, Szczepin, ul. Strzegomska",51.1130857,17.0011973,3,68.0,904500
801,"Wrocław, Śródmieście, Centrum",51.1132425,17.0812736,1,43.5,531300
802,"Wrocław, Krzyki, Jagodno",51.0516668,17.0576881,4,59.39,500415
803,"Wrocław, Krzyki, ul. Krzycka",51.0700742,16.9980133,3,68.25,770000
804,"Wrocław, Stare Miasto, Szczepin, ul. Nabycińska",51.1110648,17.0178435,3,47.51,549000
805,"Wrocław, Krzyki, Jagodno",51.0516668,17.0576881,3,54.18,475695
806,"Wrocław, Krzyki, Jagodno, Edmunda Kajdasza",51.053753,17.0546358,3,52.94,475931
807,"Wrocław, Psie Pole, Swojczyce, Działoszyńska",51.1196792,17.1249672,3,64.35,629987
808,"Wrocław, Psie Pole, Sołtysowice, Przejazdowa",51.1478766,17.0801996,1,34.84,330980
809,"Wrocław, Fabryczna, Muchobór Wielki, Hłaski",51.1009326,16.9490158,3,55.05,579000
810,"Wrocław, Krzyki, Buforowa",51.0566243,17.057308,2,37.0,317094
811,"Wrocław, Fabryczna, Stabłowice, Lubomierska",51.1675504,16.8971421,2,32.7,420000
812,"Wrocław, Stare Miasto, Szczepin, ul. Romana Dmowskiego",51.1169476,17.0215822,2,44.83,570000
813,"Wrocław, Krzyki, Jagodno",51.0516668,17.0576881,2,45.6,446400
814,"Wrocław, Krzyki, Jagodno",51.0516668,17.0576881,3,54.81,520000
815,"Wrocław, Krzyki, Huby, ul. Śliczna",51.0845805,17.0405647,2,34.77,420000
816,"Wrocław, Fabryczna, Marszowice, Jodłowicka",51.1696053,16.8976106,2,37.0,450000
817,"Wrocław, Fabryczna, Oporów, Ibn Siny Awicenny",51.0847185,16.9543212,3,54.8,519230
818,"Wrocław, Fabryczna, Oporów, Ibn Siny Awicenny",51.0847185,16.9543212,2,42.4,420820
819,"Wrocław, Psie Pole, Swojczyce, Działoszyńska",51.1196792,17.1249672,3,64.32,629693
820,"Wrocław, Krzyki, Racławicka",51.0808338,16.9975774,2,36.1,472008
821,"Wrocław, Krzyki, Ołtaszyn, Brylantowa",51.0493629,17.0279671,4,97.24,1115000
822,"Wrocław, Fabryczna, Stabłowice, ul. Jodłowicka",51.1696053,16.8976106,3,57.82,600000
823,"Wrocław, Fabryczna, Muchobór Wielki, ul. Stanisława Kunickiego",51.0907588,16.9373492,3,57.0,700000
824,"Wrocław, Śródmieście, Ołbin, ul. Stefana Żeromskiego",51.1234232,17.0488232,2,56.0,570000
825,"Wrocław, Fabryczna, Stabłowice, ul. Stabłowicka",51.1642808,16.8971,3,53.79,484100
826,"Wrocław, Krzyki, ul. Zwycięska",51.0596713,17.0056292,2,38.07,456840
827,"Wrocław, Śródmieście, Plac Grunwaldzki",51.1123373,17.0627448,3,75.0,549900
828,"Wrocław, Psie Pole, Wojnów",51.0974404,17.1606838,3,50.37,459000
829,"Wrocław, Krzyki, Wojszyce, ul. Klasztorna",51.0605968,17.0442231,3,54.0,615000
830,"Wrocław, Psie Pole, Zgorzelisko",51.13788,17.1299946,1,30.47,240000
831,"Wrocław, Psie Pole, Lipa Piotrowska, Kaparowa",51.1781365,17.0038223,2,51.0,499000
832,"Wrocław, Fabryczna, Nowy Dwór, ul. Rogowska",51.1136776,16.9489519,2,39.03,500000
833,"Wrocław, Psie Pole, Zgorzelisko",51.13788,17.1299946,2,49.21,388000
834,"Wrocław, Stare Miasto, Szczepin",51.1176215,17.0121574,2,39.1,414990
835,"Wrocław, Psie Pole, Sołtysowice, Lothara Herbsta",51.1439878,17.0689166,3,63.3,609980
836,"Wrocław, Krzyki, Gaj, ul. Krynicka",51.080103,17.0481479,2,35.0,449000
837,"Wrocław, Rynek, ul. św. Mikołaja",51.1110615,17.0307934,3,60.75,689000
838,"Wrocław, Stare Miasto, Dmowskiego Romana",51.118126,17.0207809,2,45.0,579000
839,"Wrocław, Krzyki, Huby, Wesoła",51.091017,17.0377269,4,65.0,549000
840,"Wrocław, Krzyki, Zaporoska",51.0967942,17.0148281,3,46.0,419000
841,"Wrocław, Krzyki, al. gen. Józefa Hallera",51.0901252,16.9953261,4,84.21,1345000
842,"Wrocław, Fabryczna, Nowy Dwór, ul. Rogowska",51.1136776,16.9489519,3,62.1,578000
843,"Wrocław, Fabryczna, Stabłowice",51.15955049999999,16.9003899,3,57.25,549000
844,"Wrocław, Fabryczna, Skrzydlata",51.126311,16.9584614,2,51.3,460000
845,"Wrocław, Krzyki, Ołtaszyn, ul. Brylantowa",51.0493629,17.0279671,3,61.29,730000
846,"Wrocław, Krzyki, Borek",51.0799662,17.0122767,2,35.0,370000
847,"Wrocław, Fabryczna, Muchobór Wielki, Trawowa",51.1000953,16.9517193,3,63.3,690000
848,"Wrocław, Krzyki, Jagodno",51.0516668,17.0576881,2,48.44,425700
849,"Wrocław, Krzyki, Jagodno",51.0516668,17.0576881,2,38.36,375500
850,"Wrocław, Krzyki, Jagodno",51.0516668,17.0576881,3,49.68,461500
851,"Wrocław, Krzyki, Jagodno",51.0516668,17.0576881,4,97.28,1039900
852,"Wrocław, Krzyki, Wojszyce",51.0625053,17.0322211,2,48.41,540000
853,"Wrocław, Krzyki, Borek, Ślężna",51.0783801,17.019602,3,58.7,529000
854,"Wrocław, Krzyki, Jagodno, Buforowa",51.0517863,17.0582868,2,45.6,446424
855,"Wrocław, Krzyki, Jagodno, Buforowa",51.0517863,17.0582868,3,53.87,452686
856,"Wrocław, Fabryczna, Grabiszyn, Racławicka",51.0808338,16.9975774,2,44.9,434000
857,"Wrocław, Psie Pole, Zakrzów, Odolanowska",51.1634115,17.1423649,3,48.8,468500
858,"Wrocław, Fabryczna, Grabiszyn, Szczęśliwa",51.0976852,17.0121303,3,49.76,500500
859,"Wrocław, Krzyki, Południe, Komuny Paryskiej",51.101719,17.046855,2,62.5,623000
860,"Wrocław, Stare Miasto, Szczepin, Długa",51.1213043,17.0127913,4,100.9,1139100
861,"Wrocław, Fabryczna, Kuźniki",51.1244922,16.9486646,2,53.0,449900
862,"Wrocław, Stare Miasto, Szczepin, Długa",51.1213043,17.0127913,1,38.4,508000
863,"Wrocław, Nadodrze, Bolesława Drobnera",51.1181035,17.0378075,4,180.0,2337000
864,"Wrocław, Krzyki, Jagodno, Drabika",51.0583021,17.0528517,4,60.0,589000
865,"Wrocław, Psie Pole, Zakrzów, Zatorska",51.1603498,17.1338343,3,60.3,552000
866,"Wrocław, Śródmieście, Brzeska 5-15",51.09675290000001,17.0514501,1,32.0,450000
867,"Wrocław, Fabryczna, Żerniki",51.12408259999999,16.9257567,2,46.89,503193
868,"Wrocław, Krzyki, Gaj",51.0756442,17.0411497,3,80.1,739000
869,"Wrocław, Psie Pole, Lipa Piotrowska, Waniliowa",51.1774147,16.9989875,3,53.6,534900
870,"Wrocław, Fabryczna, Popowice, Bobrza ok Legnicka Popowice",51.1278032,16.9876985,2,41.5,425000
871,"Wrocław, Fabryczna, ul. Bobrza",51.1278032,16.9876985,3,54.0,495000
872,"Wrocław, Fabryczna, Kozanów",51.1388553,16.9780266,2,47.93,405000
873,"Wrocław, Psie Pole, Lipa Piotrowska",51.1756961,16.9932025,3,62.93,690000
874,"Wrocław, Krzyki, Wojszyce",51.0625053,17.0322211,2,40.0,440000
875,"Wrocław, Fabryczna, Kuźniki",51.1244922,16.9486646,2,53.28,478987
876,"Wrocław, Krzyki, Jagodno",51.0516668,17.0576881,2,48.99,460016
877,"Wrocław, Krzyki, Księże Wielkie",51.0711507,17.0957163,3,60.15,604508
878,"Wrocław, Krzyki, Jagodno",51.0516668,17.0576881,4,76.32,716644
879,"Wrocław, Psie Pole, Różanka, Obornicka",51.1463535,17.0219425,3,62.58,628990
880,"Wrocław, Krzyki, Jagodno",51.0516668,17.0576881,2,30.75,335765
881,"Wrocław, Śródmieście, Ołbin, Jedności Narodowej",51.1258382,17.0466067,3,66.31,989000
882,"Wrocław, Krzyki, Jagodno",51.0516668,17.0576881,3,53.6,476903
883,"Wrocław, Krzyki, Ołtaszyn",51.0533538,17.0200321,2,61.0,580000
884,"Wrocław, Fabryczna, Oporów",51.07731769999999,16.9633676,2,38.22,402509
885,"Wrocław, Krzyki, Tarnogaj, Piękna",51.0848578,17.0552092,2,45.36,630000
886,"Wrocław, Fabryczna, Popowice, ul. Bobrza",51.1278032,16.9876985,3,54.0,495000
887,"Wrocław, Krzyki, Księże Wielkie, Blizanowicka",51.0774879,17.0916281,4,102.4,999000
888,"Wrocław, Krzyki, Racławicka",51.0808338,16.9975774,3,69.0,899000
889,"Wrocław, Fabryczna, Maślice",51.157561,16.9274743,2,48.9,458990
890,"Wrocław, Fabryczna, Pilczyce, Dokerska",51.1394911,16.9649153,2,46.55,399000
891,"Wrocław, Krzyki, Tadeusza Zielińskiego",51.0989093,17.0211789,2,34.4,414900
892,"Wrocław, Stare Miasto, Szczepin",51.1176215,17.0121574,1,25.6,315000
893,"Wrocław, Fabryczna, Nowy Dwór",51.1153476,16.9583346,1,27.0,380000
894,"Wrocław, Fabryczna, Nowy Dwór",51.1153476,16.9583346,2,29.12,394000
895,"Wrocław, Krzyki, Jagodno",51.0516668,17.0576881,2,49.0,460200
896,"Wrocław, Krzyki, Jagodno",51.0516668,17.0576881,3,64.5,612200
897,"Wrocław, Fabryczna, Niedźwiedzia",51.123493,16.9960705,3,54.7,499000
898,"Wrocław, Fabryczna, Muchobór Wielki, ul. Jurija Gagarina",51.0952841,16.9346848,4,71.0,699000
899,"Wrocław, Śródmieście, Kurkowa",51.120685,17.0278604,3,76.91,549000
900,"Wrocław, Fabryczna, Gądów Mały, Bajana Jerzego",51.1275197,16.9610542,1,35.1,421200
901,"Wrocław, Krzyki, Borek, Sokola",51.0827588,17.0071892,3,63.27,800000
902,"Wrocław, Psie Pole, Lipa Piotrowska",51.1756961,16.9932025,3,58.9,520000
903,"Wrocław, Fabryczna, Żerniki, Żernicka",51.127359,16.9136398,2,61.39,579000
904,"Wrocław, Psie Pole, Zakrzów",51.166611,17.1339871,3,60.0,499000
905,"Wrocław, Psie Pole, Lipa Piotrowska, Waniliowa",51.1774147,16.9989875,4,80.78,649000
906,"Wrocław, Krzyki, Jagodno",51.0516668,17.0576881,3,59.73,493967
907,"Wrocław, Krzyki, Jagodno",51.0516668,17.0576881,2,44.1,409978
908,"Wrocław, Krzyki, Borek",51.0799662,17.0122767,3,53.13,523000
909,"Wrocław, Stare Miasto, ul. Komuny Paryskiej",51.101719,17.046855,2,45.0,550000
910,"Wrocław, Śródmieście, Ołbin, Elizy Orzeszkowej",51.1230072,17.05413,4,93.0,753300
911,"Wrocław, Krzyki, Jagodno, Kajdasza",51.053753,17.0546358,4,97.28,1039923
912,"Wrocław, Psie Pole, Swojczyce",51.1153559,17.1360744,3,71.4,670446
913,"Wrocław, Psie Pole, Swojczyce",51.1153559,17.1360744,3,64.41,630574
914,"Wrocław, Psie Pole, Swojczyce",51.1153559,17.1360744,3,58.06,568407
915,"Wrocław, Śródmieście, Ołbin, Jedności Narodowej",51.1258382,17.0466067,4,78.72,1119400
916,"Wrocław, Śródmieście, Ołbin, Jedności Narodowej",51.1258382,17.0466067,2,48.0,565000
917,"Wrocław, Śródmieście, Ołbin, Henryka Sienkiewicza",51.1162931,17.0553906,2,30.9,475600
918,"Wrocław, Fabryczna, Grabiszyn, Krucza",51.0934008,17.0044949,3,140.6,2319900
919,"Wrocław, Krzyki, Wojszyce",51.0625053,17.0322211,4,57.0,437000
920,"Wrocław, Krzyki, Jagodno, Buforowa",51.0517863,17.0582868,6,101.0,549900
921,"Wrocław, Krzyki, Jagodno",51.0516668,17.0576881,2,35.75,365000
922,"Wrocław, Krzyki, Południe, Prądzyńskiego",51.0998845,17.0498399,4,100.0,615000
923,"Wrocław, Fabryczna, Oporów, Wiejska",51.0779023,16.9604504,1,25.0,336000
924,"Wrocław, Psie Pole, Karłowice, Żywopłotowa",51.1451041,16.9883697,1,36.0,309000
925,"Wrocław, Śródmieście, ul. Mieszczańska",51.1185898,17.0227808,2,39.5,578000
926,"Wrocław, Krzyki, Wojszyce",51.0625053,17.0322211,2,37.5,331000
927,"Wrocław, Krzyki, ul. Ignacego Mościckiego",51.0598941,17.0863393,4,75.0,637500
928,"Wrocław, Krzyki, Jagodno",51.0516668,17.0576881,3,49.22,432434
929,"Wrocław, Stare Miasto, marsz. Józefa Piłsudskiego",51.105988,17.0208688,3,65.0,715000
930,"Wrocław, Krzyki, Jagodno",51.0516668,17.0576881,2,38.48,350715
931,"Wrocław, Fabryczna, Jodłowicka",51.1696053,16.8976106,3,57.82,620000
932,"Wrocław, Krzyki, Gaj, Strońska",51.0742377,17.0415684,5,61.97,599000
933,"Wrocław, Stare Miasto, Księcia Witolda",51.115085,17.0266004,2,60.09,1135000
934,"Wrocław, Śródmieście, Trzebnicka",51.1257628,17.0360032,5,90.0,770000
935,"Wrocław, Stare Miasto, Igielna",51.1115111,17.0321469,4,90.0,1200000
936,"Generała Józefa Hauke-Bosaka 18, Wrocław, dolnośląskie",51.1048585,17.0457481,1,28.52,456320
937,"Wrocław, Psie Pole, Grodzieńska",51.1389809,17.1349991,3,50.76,422120
938,"Wrocław, Krzyki, Księże Małe",51.0800549,17.0834195,1,25.0,330000
939,"Wrocław, Krzyki, Brochów",51.0653184,17.074157,2,41.44,354000
940,"Wrocław, Krzyki, Brochów, Boiskowa",51.0479879,17.0877407,2,44.19,386000
941,"Wrocław, Fabryczna, ul. Małopanewska",51.1208242,16.9849201,3,73.46,1175000
942,"Wrocław, Krzyki, Jagodno",51.0516668,17.0576881,4,69.42,707000
943,"Wrocław, Stare Miasto, Podwale",51.1053122,17.0279721,2,49.0,1250000
944,"Wrocław, Stare Miasto, wyspa Słodowa",51.1161092,17.0375204,2,30.0,960000
945,"Wrocław, Krzyki, Drukarska",51.0899916,17.0208572,1,25.7,339000
946,"Wrocław, Stare Miasto, Staromłyńska",51.115305,17.0404234,2,47.52,1283040
947,"Generała Józefa Hauke-Bosaka 18, Wrocław, dolnośląskie",51.1048585,17.0457481,2,51.36,654000
948,"Generała Józefa Hauke-Bosaka 18, Wrocław, dolnośląskie",51.1048585,17.0457481,2,51.44,658000
949,"Wrocław, Fabryczna, Nowy Dwór",51.1153476,16.9583346,2,52.0,650000
950,"Wrocław, Fabryczna, Gądów Mały, Jerzego Bajana",51.1274828,16.9628297,1,39.0,425000
951,"Wrocław, Śródmieście, Ołbin",51.1220467,17.0544595,1,41.0,385000
952,"Wrocław, Stare Miasto, Szczepin",51.1176215,17.0121574,3,62.3,670000
953,"Wrocław, Psie Pole, ul. Kamieńskiego",51.1568406,17.0443512,3,69.37,735000
954,"Wrocław, Psie Pole, ul. Kamieńskiego",51.1568406,17.0443512,4,68.13,598862
955,"Wrocław, Psie Pole, ul. Kamieńskiego",51.1568406,17.0443512,1,32.99,395880
956,"Wrocław, Nadodrze, Dubois",51.117965,17.0302793,2,50.66,390000
957,"Wrocław, Psie Pole, os. Kiełczowskie",51.1459638,17.1327642,2,51.4,499900
958,"Wrocław, Krzyki, Jarzębinowa",51.0815371,17.0171701,1,19.0,319000
959,"Wrocław, Śródmieście, Ołbin",51.1220467,17.0544595,1,35.0,340000
960,"Wrocław, Nadodrze, ul. św. Wincentego",51.1227936,17.0346451,2,47.0,415000
961,"Wrocław, Śródmieście, Ameriga Vespucciego",51.1075283,17.1240196,2,37.0,529000
962,"Wrocław, Śródmieście, ul. Antoniego Słonimskiego",51.130075,17.0452975,3,65.26,840000
963,"Wrocław, Śródmieście, Plac Grunwaldzki, ul. Barycka",51.1123373,17.0627448,3,62.0,680000
964,"Wrocław, Fabryczna, Grabiszyn, Szczęśliwa",51.0976852,17.0121303,2,37.0,354900
965,"Wrocław, Stare Miasto, Tadeusza Rejtana",51.100748,17.0356885,2,41.2,350000
966,"Wrocław, Krzyki, gen. Józefa Hallera",51.0861995,17.0090612,3,77.17,750000
967,"Wrocław, Fabryczna, Stabłowice, Lubomierska",51.1675504,16.8971421,3,57.15,554000
968,"Wrocław, Krzyki, Łączności",51.0912122,17.0117819,4,55.0,550000
969,"Wrocław, Krzyki, ul. Babiego Lata",51.0695349,16.9953224,4,90.0,1199777
970,"Wrocław, Krzyki, Tarnogaj, Tarnogajska",51.0805866,17.0623337,3,85.49,690000
971,"Wrocław, Krzyki, Powstańców Śląskich",51.0893253,17.0159794,2,52.6,389000
972,"Wrocław, Fabryczna, Stabłowice, ul. Arbuzowa",51.1553969,16.8993199,2,48.0,520000
973,"Wrocław, Krzyki, Jagodno, Buforowa",51.0517863,17.0582868,2,40.57,391663
974,"Wrocław, Krzyki, Tarnogaj, Jesionowa",51.0878667,17.0525291,2,40.69,595000
975,"Wrocław, Stare Miasto, Wandy",51.0880935,17.0108697,3,55.0,645000
976,"Wrocław, Krzyki, Jagodno",51.0516668,17.0576881,2,37.13,336391
977,"Wrocław, Fabryczna, Stabłowice, ul. Wełniana",51.1590201,16.8986622,1,23.0,297000
978,"Wrocław, Fabryczna, Popowice, Wejherowska",51.1294886,16.9856062,3,64.0,599000
979,"Wrocław, Krzyki, Jagodno",51.0516668,17.0576881,1,28.08,308096
980,"Wrocław, Śródmieście, Ołbin, Oleśnicka",51.1209409,17.0462071,2,57.36,580000
981,"Wrocław, Fabryczna, Grabiszyn, Inżynierska",51.0950482,16.9890845,3,65.0,570000
982,"Wrocław, Fabryczna, Ołowiana",51.098216,17.0051493,2,46.0,519000
983,"Wrocław, Stare Miasto, Łąkowa",51.1042228,17.0281832,2,60.09,649000
984,"Wrocław, Krzyki, Partynice, Kawalerzystów",51.0608064,17.0045165,3,65.82,799000
985,"Wrocław, Fabryczna, Grabiszyn, Grabiszyńska",51.0911158,16.9916243,3,55.0,749000
986,"Wrocław, Psie Pole, Różanka, Obornicka",51.1463535,17.0219425,3,60.0,749999
987,"Wrocław, Śródmieście, Plac Grunwaldzki",51.1123373,17.0627448,4,66.0,650000
988,"Wrocław, Krzyki, Huby, Gliniana",51.0931196,17.0375372,2,47.94,499000
989,"Wrocław, Fabryczna, Muchobór Wielki, Graniczna",51.1095608,16.93351,2,44.0,512000
990,"Wrocław, Śródmieście, Plac Grunwaldzki, Wybrzeże Pasteura",51.1117816,17.0698392,1,24.26,419000
991,"Wrocław, Psie Pole, Różanka, Obornicka",51.1463535,17.0219425,3,51.9,532000
992,"Wrocław, Śródmieście, Ołbin, Damrota",51.1255084,17.0559331,3,61.61,620000
993,"Wrocław, Fabryczna, Oporów, Wiejska",51.0779023,16.9604504,3,64.0,680000
994,"Wrocław, Krzyki, Jagodno",51.0516668,17.0576881,2,43.29,407620
995,"Wrocław, Śródmieście, Ołbin, kard. Stefana Wyszyńskiego",51.1219598,17.0523022,2,55.0,420000
996,"Wrocław, Psie Pole, Zakrzów, Stoczniowa",51.1626576,17.1314168,4,85.6,755300
997,"Wrocław, Krzyki, Jagodno",51.0516668,17.0576881,4,64.11,577428
998,"Wrocław, Krzyki, Jagodno",51.0516668,17.0576881,3,54.05,485190
999,"Wrocław, Rynek, Księcia Witolda",51.115085,17.0266004,3,117.61,2227365
1000,"Wrocław, Fabryczna, Stabłowice",51.15955049999999,16.9003899,2,37.1,450000
1001,"Wrocław, Stare Miasto, Szczepin, ul. Zachodnia",51.1167319,17.0098192,2,43.5,247500
1002,"Wrocław, Krzyki, Ołtaszyn, ul. Parafialna",51.0607184,17.0265046,2,42.0,439000
1003,"Wrocław, Stare Miasto, Stare Miasto",51.1087443,17.0143368,1,35.5,465000
1004,"Wrocław, Fabryczna, Grabiszyn, Miedziana",51.0997111,16.9984643,2,40.63,459900
1005,"Wrocław, Krzyki, Południe, ul. Walońska",51.1046791,17.0507465,4,74.72,2000000
1006,"Wrocław, Fabryczna, Grabiszyn",51.0911158,16.9916243,2,38.0,379000
1007,"Wrocław, Krzyki, Południe, ul. Gwiaździsta",51.0972503,17.0216121,3,100.0,2990000
1008,"Wrocław, Fabryczna, Oporów, Honoriusza Balzaka",51.0762432,16.9592207,3,64.7,670000
1009,"Wrocław, Fabryczna, Franciszka Hynka",51.1238813,16.9641654,1,34.0,415000
1010,"Wrocław, Śródmieście, Centrum, Gnieźnieńska",51.1224314,17.0119577,2,44.0,545000
1011,"Wrocław, Fabryczna, Oporów",51.07731769999999,16.9633676,3,65.3,563500
1012,"Wrocław, Krzyki, Jagodno",51.0516668,17.0576881,2,41.34,386000
1013,"Wrocław, Krzyki, Jagodno",51.0516668,17.0576881,3,53.59,475234
1014,"Wrocław, Stare Miasto, Szczepin",51.1176215,17.0121574,3,52.26,689000
1015,"Wrocław, Śródmieście, Plac Grunwaldzki",51.1123373,17.0627448,2,51.6,651450
1016,"Wrocław, Śródmieście, Centrum",51.1132425,17.0812736,2,44.5,604600
1017,"Wrocław, Stare Miasto, Szczepin",51.1176215,17.0121574,2,31.3,390000
1018,"Wrocław, Stare Miasto, Szczepin",51.1176215,17.0121574,2,39.0,482000
1019,"Wrocław, Krzyki, Jagodno",51.0516668,17.0576881,2,43.19,363577
1020,"Wrocław, Krzyki, Jagodno",51.0516668,17.0576881,1,26.0,280000
1021,"Wrocław, Krzyki, Jagodno",51.0516668,17.0576881,1,26.32,299000
1022,"Wrocław, Fabryczna, Muchobór Wielki, Przedświt",51.0948805,16.9459558,4,92.51,909000
1023,"Wrocław, Śródmieście, ul. Kręta",51.1234535,17.0400068,1,25.7,415000
1024,"Wrocław, Stare Miasto, Szczepin, Lubińska",51.1173735,17.005275,2,41.0,464900
1025,"Wrocław, Fabryczna, Muchobór Wielki, Tarnopolska",51.0939029,16.940905,5,113.7,1068000
1026,"Wrocław, Krzyki, Ołtaszyn, Ułańska",51.0529087,17.0152981,3,64.84,699000
1027,"Wrocław, Krzyki, Gaj, Srebrnogórska",51.0720978,17.0472964,3,53.28,570000
1028,"Wrocław, Psie Pole, Lipa Piotrowska",51.1756961,16.9932025,2,52.41,529000
1029,"Wrocław, Stare Miasto, Kościuszki ok.",51.1013225,17.0396029,2,45.0,499000
1030,"Wrocław, Krzyki, Jagodno",51.0516668,17.0576881,4,59.69,505459
1031,"Wrocław, Krzyki, Jagodno",51.0516668,17.0576881,2,40.1,363570
1032,"Wrocław, Krzyki, Jagodno",51.0516668,17.0576881,2,30.42,332193
1033,"Wrocław, Stare Miasto, Plac Legionów",51.104405,17.0233795,3,75.61,630000
1034,"Wrocław, Krzyki, Jagodno",51.0516668,17.0576881,2,31.66,454000
1035,"Wrocław, Psie Pole, Zakrzów",51.166611,17.1339871,2,37.06,384000
1036,"Wrocław, Stare Miasto, Szczepin",51.1176215,17.0121574,2,41.9,499000
1037,"Wrocław, Psie Pole, Zakrzów",51.166611,17.1339871,2,35.98,384000
1038,"Wrocław, Psie Pole, Zakrzów",51.166611,17.1339871,2,38.46,389000
1039,"Wrocław, Stare Miasto, ul. marsz. Józefa Piłsudskiego 1",51.1069419,17.021037,2,52.0,590000
1040,"Wrocław, Fabryczna, Grabiszynek",51.0911158,16.9916243,3,69.0,830000
1041,"Wrocław, Fabryczna, Muchobór Wielki, ul. Tarnopolska",51.0939029,16.940905,4,80.5,850000
1042,"Wrocław, Krzyki, ul. Szybka",51.1029497,17.054668,1,37.85,510000
1043,"Wrocław, Śródmieście, ul. Karola Miarki",51.1259711,17.0523309,1,34.88,339000
1044,"Wrocław, Psie Pole, Lipa Piotrowska",51.1756961,16.9932025,2,55.58,590000
1045,"Wrocław, Stare Miasto, Szczepin, ul. Romana Dmowskiego",51.1169476,17.0215822,2,41.06,550204
1046,"Wrocław, Psie Pole, Karłowice",51.1389665,17.0492602,2,43.75,525000
1047,"Wrocław, Fabryczna, Grabiszyn, ul. Blacharska",51.0809412,16.989789,3,59.4,629999
1048,"Wrocław, Krzyki, Jagodno",51.0516668,17.0576881,2,40.23,434000
1049,"Wrocław, Fabryczna, Stabłowice, ul. Stabłowicka",51.1642808,16.8971,3,53.79,530000
1050,"Wrocław, Fabryczna, Grabiszyn, ul. Grabiszyńska",51.0961358,16.9906982,2,48.32,526688
1051,"Wrocław, Psie Pole, Swojczyce, ul. Marca Polo",51.1109378,17.1169706,2,42.84,590000
1052,"Wrocław, Krzyki, Racławicka",51.0808338,16.9975774,2,39.0,493350
1053,"Wrocław, Psie Pole, Zakrzów, Odolanowska",51.1634115,17.1423649,2,38.46,399000
1054,"Wrocław, Psie Pole, Rudawska",51.1527434,17.0363613,2,51.45,490295
1055,"Wrocław, Krzyki, Południe, ul. Waleriana Łukasińskiego",51.1020935,17.0492722,2,34.32,399000
1056,"Wrocław, Śródmieście, Ołbin, ul. Oleśnicka",51.1209409,17.0462071,1,55.0,467500
1057,"Wrocław, Psie Pole, Zgorzelisko",51.13788,17.1299946,2,40.83,322000
1058,"Wrocław, Krzyki, ul. Szarugi",51.0689154,16.9940802,3,72.36,860000
1059,"Wrocław, Krzyki, Księże Małe",51.0800549,17.0834195,2,49.5,485000
1060,"Wrocław, Krzyki, ul. Deszczowa",51.0730837,16.9997624,4,64.0,655000
1061,"Wrocław, Fabryczna, ul. Włodzimierza Majakowskiego",51.1263015,16.9495729,2,51.2,395000
1062,"Wrocław, Psie Pole, Zakrzów, ul. Zatorska",51.1603498,17.1338343,3,60.28,499900
1063,"Wrocław, Psie Pole, Zakrzów, ul. Zatorska",51.1603498,17.1338343,3,66.32,532000
1064,"Wrocław, Krzyki, Południe, Hauke Bosaka Józefa",51.1043163,17.0470557,2,58.37,565000
1065,"Wrocław, Stare Miasto, Brzeska",51.096897,17.0521516,1,31.51,450000
1066,"Wrocław, Krzyki, Klecina, Poranna",51.0736912,16.9934055,3,74.8,669000
1067,"Wrocław, Śródmieście, Henryka Sienkiewicza",51.1162931,17.0553906,3,107.8,790000
1068,"Wrocław, Stare Miasto, Podwale",51.1053122,17.0279721,6,86.47,850000
1069,"Wrocław, Fabryczna, Maślice, Zawidowska",51.1538775,16.9416832,4,72.61,798000
1070,"Wrocław, Krzyki, Południe, Komuny Paryskiej",51.101719,17.046855,2,46.41,663663
1071,"Wrocław, Psie Pole, Swojczyce, Magellana Ferdynanda",51.1109166,17.1212255,2,47.0,690000
1072,"Wrocław, Śródmieście, Ołbin, Barlickiego Norberta",51.1225461,17.0497218,4,100.95,1200000
1073,"Wrocław, Śródmieście, Ołbin, Wyszyńskiego Stefana",51.1282194,17.0553534,3,77.06,599000
1074,"Wrocław, Fabryczna, Stabłowice, Starogajowa",51.1490948,16.8952575,2,68.0,695000
1075,"Wrocław, Śródmieście, Plac Grunwaldzki, pl. Grunwaldzki",51.1123373,17.0627448,2,39.45,949000
1076,"Wrocław, Śródmieście, Ołbin, Świętokrzyska",51.1172615,17.0448623,3,66.0,735000
1077,"Wrocław, Fabryczna, Muchobór Wielki, Graniczna",51.1095608,16.93351,3,56.72,567000
1078,"Wrocław, Fabryczna, Muchobór Wielki",51.0975756,16.9483105,3,80.5,799000
1079,"Wrocław, Fabryczna, Oporów, Ibn Siny Awicenny",51.0847185,16.9543212,4,63.4,588035
1080,"Wrocław, Psie Pole, Widawa, Meliorancka",51.1698318,17.0074636,4,111.0,795000
1081,"Wrocław, Psie Pole, Zakrzów, ul. Zatorska",51.1603498,17.1338343,3,55.12,473236
1082,"Wrocław, Psie Pole, Zakrzów, ul. Zatorska",51.1603498,17.1338343,3,60.43,508700
1083,"Wrocław, Krzyki, Gaj, Srebrnogórska",51.0720978,17.0472964,2,51.0,544900
1084,"Wrocław, Śródmieście, ul. Mariana Smoluchowskiego",51.1080084,17.0645973,4,177.91,2390000
1085,"Wrocław, Krzyki, Wojszyce, ul. Jarosława Iwaszkiewicza",51.0559995,17.0361725,3,58.28,559488
1086,"Wrocław, Fabryczna, Muchobór Wielki",51.0975756,16.9483105,2,59.0,569000
1087,"Wrocław, Krzyki, Wojszyce, ul. Jarosława Iwaszkiewicza",51.0559995,17.0361725,2,53.31,517107
1088,"Wrocław, Fabryczna, Muchobór Mały",51.1082587,16.9668133,3,62.0,580000
1089,"Wrocław, Psie Pole, Sołtysowice, ul. Lekcyjna",51.1510011,17.067367,2,73.0,670000
1090,"Wrocław, Stare Miasto, ok. Piłsudskiego / LUX / Rozkład / Balkon",51.1054337,17.0382912,2,71.3,530000
1091,"Wrocław, Stare Miasto, ok. pl. Kościuszki / LUX / Rozkład / Balkon",51.1022965,17.0298665,2,70.0,530000
1092,"Wrocław, Stare Miasto, ok. Stawowa  / LUX / Rozkład / Balkon",51.1006451,17.0341143,2,71.3,530000
1093,"Wrocław, Fabryczna, ok.Stabłowicka/Lux/2 balkony/Winda/Rozkład",51.1642808,16.8971,4,81.0,675000
1094,"Wrocław, Fabryczna, Stabłowice, ok.Stabłowicka/Lux/2 balkony/Winda/Rozkład",51.1642808,16.8971,4,81.0,675000
1095,"Wrocław, Psie Pole, Swojczyce, Olimpia Port",51.1080601,17.1217119,2,50.9,660000
1096,"Wrocław, Psie Pole, Poświętne, Adama Jerzego Czartoryskiego",51.1544364,17.0453384,1,32.99,395880
1097,"Wrocław, Fabryczna, Oporów, Ibn Siny Awicenny",51.0847185,16.9543212,3,53.1,529673
1098,"Wrocław, Krzyki, Jagodno, Edmunda Kajdasza",51.053753,17.0546358,2,48.99,460016
1099,"Wrocław, Śródmieście, Centrum, ul. gen. Ignacego Prądzyńskiego",51.0998845,17.0498399,1,30.0,515000
1100,"Wrocław, Krzyki, ul.Jordanowska",51.083845,16.9647945,2,47.0,589000
1101,"Wrocław, Fabryczna, Gądów Mały, ok. Bajana / Rozkład / Balkon / Media Miejskie",51.1256904,16.9686617,2,52.0,409000
1102,"Wrocław, Fabryczna, Skrzydlata / Rozkład / Balkon / Media Miejskie",51.126311,16.9584614,2,51.3,409000
1103,"Wrocław, Krzyki, Ołtaszyn",51.0533538,17.0200321,2,42.0,499000
1104,"Wrocław, Psie Pole, Zakrzów, ul. Stoczniowa",51.1626576,17.1314168,3,53.0,597000
1105,"Wrocław, Fabryczna, Grabiszyn",51.0911158,16.9916243,3,62.0,961000
1106,"Wrocław, Śródmieście, Kręta",51.1234535,17.0400068,3,53.85,595000
1107,"Wrocław, Fabryczna, Popowice, ul. Kwiska",51.1219789,16.9813014,3,59.67,619000
1108,"Wrocław, Fabryczna, Pilczycka",51.1384271,16.9634371,3,59.87,390000
1109,"Wrocław, Krzyki, Jagodno",51.0516668,17.0576881,3,55.0,549900
1110,"Wrocław, Fabryczna, Stabłowice",51.15955049999999,16.9003899,4,76.0,1050000
1111,"Wrocław, Krzyki, Borek",51.0799662,17.0122767,2,27.0,359000
1112,"Wrocław, Fabryczna, Grabiszyn, ul. Grabiszyńska",51.0961358,16.9906982,3,44.8,389000
1113,"Wrocław, Krzyki, Księże Małe, Siewierska",51.0742696,17.0864563,4,71.0,699900
1114,"Wrocław, Krzyki, Południe",51.0914689,17.0431757,2,52.0,450000
1115,"Wrocław, Fabryczna, Legnicka",51.1198031,16.9969977,3,53.7,467000
1116,"Wrocław, Krzyki, Gaj",51.0756442,17.0411497,4,72.5,620000
1117,"Wrocław, Śródmieście, Biskupin",51.1006338,17.0998089,3,56.12,580000
1118,"Wrocław, Krzyki, Opolska okolice",51.0733009,17.0886722,2,50.0,485000
1119,"Wrocław, Krzyki, Huby, Gajowa",51.0924032,17.0405996,3,48.0,500000
1120,"Wrocław, Stare Miasto, ul. Tadeusza Kościuszki",51.1013225,17.0396029,3,59.0,850000
1121,"Wrocław, Śródmieście, ul. Ludwika Rydygiera",51.1200489,17.0324275,2,42.54,509000
1122,"Wrocław, Fabryczna, ul. Stalowa",51.0979964,17.0017842,2,48.0,559000
1123,"Wrocław, Krzyki, Energetyczna",51.0917361,17.0142442,3,48.0,554000
1124,"Wrocław, Krzyki, Południe, ul. Powstańców Śląskich",51.0906915,17.0175638,2,32.2,329000
1125,"Wrocław, Krzyki, Ołtaszyn, ul. Władysława Szafera",51.0541928,17.0250405,4,127.35,889000
1126,"Wrocław, Fabryczna, Nowy Dwór, Budziszyńska",51.1125744,16.9575458,2,50.0,474000
1127,"Wrocław, Fabryczna, Bobrza",51.1278032,16.9876985,2,41.0,423000
1128,"Wrocław, Psie Pole, Władysława Orkana",51.1337842,17.0557418,2,52.5,509000
1129,"Wrocław, Fabryczna, Stabłowice",51.15955049999999,16.9003899,3,47.1,499000
1130,"Wrocław, Psie Pole, Sołtysowice, ul. Przejazdowa",51.1478766,17.0801996,3,63.47,629000
1131,"Wrocław, Śródmieście, ul. Jedności Narodowej",51.123858,17.0448522,2,77.64,499000
1132,"Wrocław, Fabryczna, Grabiszyn, al. gen. Józefa Hallera",51.0901252,16.9953261,2,36.07,389000
1133,"Wrocław, Krzyki, ul. Tadeusza Kościuszki",51.1008268,17.0418116,2,33.0,489000
1134,"Wrocław, Krzyki, Os. Skarbowców Wietrzna Zefirowa ok Racławicka ",51.07749159999999,16.9851034,2,64.3,599000
1135,"Wrocław, Krzyki, Gaj, Piławska ok Radkowska Krzyki GAJ",51.0749797,17.0431195,2,51.1,544900
1136,"Wrocław, Stare Miasto, Gnieźnieńska",51.1224314,17.0119577,2,49.46,627000
1137,"Wrocław, Śródmieście, Kluczborska",51.1224863,17.0476043,2,48.8,489000
1138,"Wrocław, Stare Miasto, Dworcowa",51.1013225,17.0396029,3,65.0,649000
1139,"Wrocław, Fabryczna, Stabłowice",51.15955049999999,16.9003899,2,49.51,485000
1140,"Wrocław, Fabryczna, Żernicka",51.1225527,16.9300889,3,60.0,670000
1141,"Wrocław, Krzyki, Księże Małe, Opolska",51.07674,17.084921,3,53.0,439000
1142,"Wrocław, Krzyki, Rybnicka",51.0807625,17.0854151,2,49.5,485000
1143,"Wrocław, Krzyki, Przyjaźni",51.0670921,16.9964144,2,54.77,605000
1144,"Wrocław, Krzyki, Gaj, Krynicka",51.080103,17.0481479,3,54.0,510000
1145,"Wrocław, Fabryczna, Zawidowska",51.1538775,16.9416832,2,50.0,479000
1146,"Wrocław, Stare Miasto, Szczepin, Przedmiejska",51.1206052,16.9985569,2,46.0,680000
1147,"Wrocław, Krzyki, Opolska",51.0733009,17.0886722,3,50.0,420000
1148,"Wrocław, Fabryczna, Lotnicza",51.1325064,16.959094,2,53.8,510000
1149,"Wrocław, Krzyki, ul. Zaporoska",51.0967942,17.0148281,2,32.0,440000
1150,"Wrocław, Krzyki, Jesionowa",51.0872176,17.0513668,3,55.0,770000
1151,"Wrocław, Psie Pole, ul. gen. Leopolda Okulickiego",51.1704147,17.1316148,1,22.6,269000
1152,"Wrocław, Krzyki, Wojszyce, ul. Smardzowska",51.0562535,17.0414246,2,40.0,440000
1153,"Wrocław, Fabryczna, Łomnicka",51.1616341,16.9081575,3,64.5,660000
1154,"Wrocław, Śródmieście, Ołbin, Nowowiejska",51.120206,17.0558115,3,55.0,425000
1155,"Wrocław, Śródmieście, Plac Grunwaldzki, Grunwaldzka",51.1141892,17.0633775,2,56.0,599000
1156,"Wrocław, Śródmieście, Plac Grunwaldzki, Wyszyńskiego",51.1151797,17.0508064,2,47.0,559000
1157,"Wrocław, Fabryczna, Kozanów, Pałucka",51.1347945,16.9772678,5,73.4,550000
1158,"Wrocław, Stare Miasto, pl. Muzealny",51.1037792,17.0250215,2,51.38,620000
1159,"Wrocław, Krzyki, Jutrzenki",51.0714903,16.9798608,3,81.4,864900
1160,"Wrocław, Stare Miasto, Walońska",51.1046791,17.0507465,2,59.62,950000
1161,"Wrocław, Psie Pole, Inflancka",51.1450026,17.1318533,2,42.0,430000
1162,"Wrocław, Krzyki, Skarbowców",51.0742237,16.995346,4,78.0,935000
1163,"Wrocław, Nadodrze, Bolesława Chrobrego",51.1227944,17.0346759,2,46.0,410000
1164,"Wrocław, Psie Pole, Sołtysowice, Rafała Wojaczka",51.1468562,17.0707603,3,60.5,639000
1165,"Wrocław, Fabryczna, Popowice, Białowieska",51.1273108,16.9934396,3,114.38,1590000
1166,"Wrocław, Stare Miasto, Szczepin, Lubińska",51.1173735,17.005275,4,63.0,630000
1167,"Wrocław, Krzyki, Krzycka",51.0700742,16.9980133,3,203.0,3199000
1168,"Wrocław, Krzyki, Borek, Jesienna",51.0719131,17.0035268,4,149.0,1399000
1169,"Wrocław, Fabryczna, ul. Główna",51.1617184,16.9020774,3,49.3,460000
1170,"Wrocław, Fabryczna, Pilczyce, Szklarska",51.1338707,16.9580995,2,39.0,359000
1171,"Wrocław, Stare Miasto, ul. Długa",51.1210389,17.0132445,2,42.83,543941
1172,"Wrocław, Fabryczna, Nowy Dwór",51.1153476,16.9583346,4,80.0,720000
1173,"Wrocław, Krzyki, Ołtaszyn, ul. gen. Tadeusza Kutrzeby",51.0485851,17.0167804,2,44.0,415000
1174,"Wrocław, Krzyki, Jagodno",51.0516668,17.0576881,3,53.5,476893
1175,"Wrocław, Krzyki, Jagodno",51.0516668,17.0576881,2,36.84,338637
1176,"Wrocław, Krzyki, Jagodno",51.0516668,17.0576881,3,49.19,432172
1177,"Wrocław, Krzyki, Jagodno",51.0516668,17.0576881,2,54.0,529984
1178,"Wrocław, Rynek, Jedności Narodowej",51.123858,17.0448522,2,46.3,370000
1179,"Wrocław, Krzyki, Południe, ul. Zaporoska",51.0967942,17.0148281,1,26.0,219000
1180,"Wrocław, Stare Miasto, Szczepin",51.1176215,17.0121574,1,31.67,480000
1181,"Wrocław, Fabryczna, Maślice",51.157561,16.9274743,3,55.3,649000
1182,"Wrocław, Krzyki, ul. Zwycięska",51.0596713,17.0056292,2,57.5,690000
1183,"Wrocław, Fabryczna, Grabiszyn, ul. Grabiszyńska",51.0961358,16.9906982,2,45.54,500940
1184,"Wrocław, Fabryczna, Oporów, Ibn Siny Awicenny",51.0847185,16.9543212,2,50.9,478460
1185,"Wrocław, Psie Pole, Sołtysowice, Przejazdowa",51.1478766,17.0801996,1,34.5,334250
1186,"Wrocław, Fabryczna, Oporów, Ibn Siny Awicenny",51.0847185,16.9543212,2,41.5,416038
1187,"Wrocław, Fabryczna, Oporów",51.07731769999999,16.9633676,3,53.7,492000
1188,"Wrocław, Krzyki, Jagodno",51.0516668,17.0576881,2,48.36,444000
1189,"Wrocław, Stare Miasto, Szczepin",51.1176215,17.0121574,3,48.5,519000
1190,"Wrocław, Fabryczna, Popowice",51.126858,16.9863307,3,60.0,590000
1191,"Wrocław, Krzyki, ul. Racławicka",51.0808338,16.9975774,2,38.84,560000
1192,"Wrocław, Fabryczna, Maślice, ul. Maślicka",51.1556322,16.9364771,3,57.13,459900
1193,"Wrocław, Fabryczna, ul. Grabiszyńska",51.0961358,16.9906982,2,54.39,545000
1194,"Wrocław, Fabryczna, Marszowice, Wąsowicza",51.162823,16.8754266,3,67.0,540000
1195,"Wrocław, Fabryczna, Grabiszynek",51.0911158,16.9916243,2,65.06,487000
1196,"Wrocław, Krzyki, Partynice, ul. Partynicka",51.0640312,16.9931832,1,23.45,279782
1197,"Wrocław, Krzyki, Partynice, ul. Partynicka",51.0640312,16.9931832,4,88.71,1099000
1198,"Wrocław, Krzyki, Partynice, ul. Partynicka",51.0640312,16.9931832,1,26.2,312592
1199,"Wrocław, Śródmieście, Ołbin, Chemiczna",51.1182336,17.054653,2,63.0,549000
1200,"Wrocław, Stare Miasto, Szczepin, Szczepińska",51.113762,17.0164999,3,59.94,445000
1201,"Wrocław, Fabryczna, Złotniki",51.139186,16.8850292,2,47.0,599000
1202,"Wrocław, Krzyki, Gaj",51.0756442,17.0411497,1,29.5,345000
1203,"Wrocław, Krzyki, Południe",51.0914689,17.0431757,1,28.5,350000
1204,"Wrocław, Krzyki, Jagodno",51.0516668,17.0576881,2,41.34,390663
1205,"Wrocław, Krzyki, Partynice, ul. Partynicka",51.0640312,16.9931832,1,25.91,248736
1206,"Wrocław, Rynek, Nowy Świat",51.1103736,17.0310308,2,37.0,465000
1207,"Wrocław, Fabryczna, Grabiszyn, Grabiszyńska OK Stalowa Grabiszyn",51.0995371,17.0011882,2,40.0,379000
1208,"Wrocław, Krzyki, Huby, Przestrzenna ok Borowska Krzyki Huby Gaj",51.0892525,17.0388936,3,49.0,500000
1209,"Wrocław, Psie Pole, Osobowice, Osobowicka",51.1474405,16.9857117,2,55.13,665000
1210,"Wrocław, Stare Miasto, Tadeusza Kościuszki",51.1013225,17.0396029,3,71.0,680000
1211,"Wrocław, Krzyki, Krzycka 83c",51.0672685,16.9951163,4,99.44,1100000
1212,"Wrocław, Śródmieście, Ołbin, Bolesława Prusa",51.1196646,17.0502845,2,57.68,450000
1213,"Wrocław, Krzyki, Południe, Brzeska",51.096897,17.0521516,2,35.0,436000
1214,"Wrocław, Stare Miasto, Kościuszki",51.1013225,17.0396029,2,38.65,610000
1215,"Wrocław, Stare Miasto, Staromłyńska",51.115305,17.0404234,3,95.12,2774400
1216,"Wrocław, Fabryczna, Popowice, ul. Przedmiejska",51.1206052,16.9985569,2,45.96,680000
1217,"Wrocław, Krzyki, Klecina, Ogórkowa",51.0664817,16.9756526,2,50.0,427000
1218,"Wrocław, Fabryczna, Grabiszyn, Makowa",51.092709,16.9912313,3,60.0,479000
1219,"Wrocław, Fabryczna, Grabiszyn, Spiżowa",51.1014705,17.0014367,2,49.0,497000
1220,"Wrocław, Fabryczna, Popowice",51.126858,16.9863307,4,64.3,529000
1221,"Wrocław, Stare Miasto, Pl. Orląt Lwowskich",51.1088942,17.0194103,1,25.0,349000
1222,"Wrocław, Śródmieście, Ołbin, Elizy Orzeszkowej",51.1230072,17.05413,2,53.34,480000
1223,"Wrocław, Fabryczna, Pilczyce, Tkacka",51.1366787,16.9590854,3,71.0,775000
1224,"Wrocław, Nadodrze, ok. pl. Staszica",51.1237271,17.0296334,4,90.53,950000
1225,"Wrocław, Fabryczna, Nowy Dwór, Rogowska",51.1136776,16.9489519,2,48.6,525000
1226,"Wrocław, Śródmieście, Plac Grunwaldzki, Wybrzeże Pasteura",51.1117816,17.0698392,2,74.78,685000
1227,"Wrocław, Stare Miasto, Uniwersytecka",51.1130817,17.0345713,4,101.0,1050000
1228,"Wrocław, Fabryczna, Grabiszyn, Krucza",51.0934008,17.0044949,2,58.3,990000
1229,"Wrocław, Psie Pole, Różanka, Obornicka",51.1463535,17.0219425,4,68.58,694000
1230,"Wrocław, Psie Pole, Karłowice, Piotra Czajkowskiego",51.1409422,17.0603278,4,72.08,719000
1231,"Wrocław, Krzyki, Rymarska",51.0805753,16.9911796,3,77.0,850000
1232,"Wrocław, Krzyki, Przyjaźni",51.0670921,16.9964144,3,107.91,1160000
1233,"Wrocław, Krzyki, Południe, Kościuszki",51.1008268,17.0418116,1,33.43,499000
1234,"Wrocław, Stare Miasto, Szczepin, Długa",51.1213043,17.0127913,2,53.63,950000
1235,"Wrocław, Krzyki, Księże Wielkie, Opolska",51.0705039,17.0916147,2,60.5,480000
1236,"Wrocław, Fabryczna, Stabłowice, Jodłowicka",51.1696053,16.8976106,4,75.15,999000
1237,"Wrocław, Krzyki, Tarnogaj, Tarnogajska",51.0805866,17.0623337,2,63.42,475000
1238,"Wrocław, Fabryczna, Gądów Mały, Hynka Franciszka",51.1238813,16.9641654,1,34.3,415000
1239,"Wrocław, Fabryczna, Grabiszyn, Racławicka",51.0808338,16.9975774,3,63.0,799000
